Year,Farmers Market,Borough ,Address,Community District,Latitude,Longitude,Days of Operation,Hours of Operations,Season Dates,Accepts EBT,Open Year-Round ,Stellar Cooking Deomonstrations,Food Activities for Kids,,,
2016,Bissel Gardens Farmers' Market,Bronx,Baychester Ave & 241st St,212,40.90152793,-73.84693885,Wednesday & Saturday,9am-5pm,7/9/2016-11/19/2016,Yes,No,No,No,,,
2016,Bronx Borough Hall Greenmarket,Bronx,Grand Concourse bet 161st & 162nd Sts,204,40.82772964,-73.92223437,Tuesday ,8am-4pm,6/7/2016-11/22/2016,Yes,No,Yes,No,,,
2016,Friends of Van Cortlandt Park Amalgamated Housing Youth Farmstand,Bronx,Orloff Ave & Gale Pl ,208,40.88268166,-73.89010772,Wednesday,2pm-7pm,7/6/2016-10/26/2016,Yes,No,No,No,,,
2016,Harvest Home Co-op City Farmers' Market,Bronx,Asch Loop & Aldrich St.,210,40.87278628,-73.82615613,Wednesday,8am-4pm,7/6/2016-11/23/2016,Yes,No,No,No,,,
2016,Harvest Home Hunts Point Market,Bronx,E 163rd St & Hunts Point Ave,210,40.82099409,-73.89161474,Wednesday,8am-4pm,6/15/2016-11/23/2016,Yes,No,No,No,,,
2016,Harvest Home Jacobi Hospital Farmers' Market,Bronx,1400 Pelham Pkwy at Eastchester Rd,211,40.8574346,-73.84708009,Tuesday & Friday,8am-4pm,5/10/2016-11/22/2016,Yes,No,No,No,,,
2016,Harvest Home Mt. Eden Farmers' Market,Bronx,Mt. Eden & Morris Aves,204,40.84276419,-73.9095888,Tuesday & Thursday,8am-4pm,5/24/2016-11/22/2016,Yes,No,No,No,,,
2016,Harvest Home North Central Bronx Farmers' Market,Bronx,Mosholu Pkwy & Jerome Ave,207,40.87887971,-73.88567667,Wednesday,8am-4pm,7/6/2016-11/23/2016,Yes,No,No,No,,,
2016,Harvest Home Soundview Farmers' Market,Bronx,Morrison Ave & Harrod Pl,209,40.82905437,-73.87443772,Saturday,8am-4pm,6/18/2016-11/19/2016,Yes,No,No,No,,,
2016,Harvest Home St. Mary's Park Market,Bronx,149th St & St. Ann's Ave,201,40.81427663,-73.91295475,Thursday,8am-4pm,7/7/2016-11/17/2016,Yes,No,No,No,,,
2016,Harvest Home Sunday Farmers' Market,Bronx,"Bronx Museum, E 165th St & Grand Concourse",204,40.83092328,-73.92046361,Sunday,8am-4pm,7/10/2016-11/20/2016,Yes,No,No,No,,,
2016,Kingsbridge-Riverdale Farmers' Market,Bronx,231st St at Kingsbridge Ave,208,40.87981525,-73.90657675,Sunday,9am-5pm,6/5/2016-11/27/2016,Yes,No,No,No,,,
2016,La Familia Verde Farmers' Market,Bronx,E Tremont Ave bet LaFontaine & Arthur Aves,206,40.84649501,-73.8943382,Tuesday,8am-2pm,7/12/2016-11/15/2016,Yes,No,Yes,No,,,
2016,"Learn It, Grow It, Eat It Youthmarket",Bronx,McKinley Sq at 169th St & Boston Rd,203,40.83115177,-73.90016595,Wednesday,10:00am-3pm,7/6/2016-11/23/2016,Yes,No,No,No,,,
2016,Lincoln Hospital Greenmarket,Bronx,149th St bet Park & Morris Aves,201,40.81739612,-73.92275947,Tuesdays & Friday,8am-3pm,6/24/2016-11/22/2016,Yes,No,No,No,,,
2016,Mott Haven Farmers' Market ,Bronx,"139th St & St. Ann's Ave, at Padre Plaza Success Garden",201,40.80751388,-73.91701657,Tuesday,10am- 4pm,7/12/2016-11/15/2016,Yes,No,No,Yes,,,
2016,New York Botanical Gardens Greenmarket,Bronx,Southern Blvd bet Mosholu Pkwy & Bedford Park Blvd,207,40.86804793,-73.87909687,Wednesday ,9am-3pm,6/15/2016-11/23/2016,Yes,No,No,No,,,
2016,Norwood Youthmarket,Bronx,E Gun Hill Rd & Dekalb Ave,207,40.88222844,-73.88045976,Thursday,12pm-7pm,7/7/2016-11/17/2016,Yes,No,No,No,,,
2016,Parkchester Greenmarket,Bronx,Westchester Ave & White Plains Rd ,209,40.83305633,-73.86254119,Friday,8am-4pm,6/3/2016-11/18/2016,Yes,No,Yes,No,,,
2016,Poe Park Greenmarket,Bronx,192nd St bet Grand Concourse & Valentine Ave,207,40.86422438,-73.89579595,Tuesday ,8am-3pm,6/28/2016-11/22/2016,Yes,No,Yes,No,,,
2016,Project EATS Montefiore Farmstand,Bronx,3011 Boston Rd,212,40.86976859,-73.8572479,Wednesday,2pm-6pm,6/1/2016-11/30/2016,Yes,No,No,No,,,
2016,Riverdale Y Sunday Farmers' Market,Bronx,"MS/HS 141, Independence Ave bet 236th & 237th Sts",208,40.8883234,-73.91310735,Sunday,9am-2pm,5/8/2016-11/20/2016,No,No,No,No,,,
2016,Riverdale Youthmarket - ends in October,Bronx,256th St & Mosholu Ave,208,40.90387505,-73.90311352,Thursday,2pm-7pm,7/7/2016-10/27/2016,Yes,No,No,No,,,
2016,South Bronx Farmers' Market,Bronx,138th St bet Willis & Alexander Aves,208,40.81006105,-73.92514495,Saturday,10am-4pm,6/18/2016-11/19/2016,Yes,No,Yes,Yes,,,
2016,Taqwa Community Farmers' Market,Bronx,90 West 164th St bet Ogden & Nelson Aves Ogden Aves,204,40.83292449,-73.92938696,Saturday ,9am-4pm,7/9/2016-11/19/2016,Yes,No,No,No,,,
2016,Agape's Bounty,Brooklyn,8712 Glenwood Rd bet 87th & 88th St,318,40.64041841,-73.90965758,Saturday,8am-2pm,6/4/2016-11/19/2016,Yes,No,No,No,,,
2016,Bartel-Pritchard Square Greenmarket,Brooklyn,Prospect Park W at 15th St,306,40.66096396,-73.98020639,Wednesday & Sunday,"Wed: 8am-3pm
Sun: 9am-3pm",Year-round on Wednesdays,Yes,Yes,No,No,,,
2016,Bay Ridge Greenmarket,Brooklyn,3rd Ave & 95th St,310,40.61728571,-74.03358994,Saturday ,8am-3pm,5/7/2016-11/19/2016,Yes,No,No,No,,,
2016,Bensonhurst Greenmarket,Brooklyn,18th Ave bet 81st & 82nd Sts,311,40.60966683,-73.99975579,Sunday,9am-4pm,6/5/2016-11/20/2016,Yes,No,No,No,,,
2016,Boro Park Greenmarket,Brooklyn,14th Ave bet 49th & 50th Sts,312,40.63370403,-73.98991701,Thursday,8am-3pm,7/7/2016-11/17/2016,Yes,No,No,No,,,
2016,Brooklyn Borough Hall Greenmarket,Brooklyn,Court & Montague Sts,302,40.69372964,-73.99045606,"Tuesday, Thursday & Saturday",8am-6pm,Year-round,Yes,Yes,No,No,,,
2016,Brownsville Pitkin Avenue Youthmarket,Brooklyn,Pitkin Ave & Thomas Boyland St,316,40.66927183,-73.91355493,Saturday ,10am-3pm,7/9/2016-11/19/2016,Yes,No,No,No,,,
2016,Brownsville Rockaway Youthmarket,Brooklyn,Rockaway & Livonia Aves,316,40.66256275,-73.90892112,Friday,12pm-5pm,7/8/2016-11/18/2016,Yes,No,No,No,,,
2016,Bushwick Farmers' Market at Maria Hernandez Park ,Brooklyn,Knickerbocker Ave & Starr St ,304,40.70281849,-73.9253916,Saturday ,9am-4pm,6/25/2016-11/19/2016,Yes,No,Yes,No,,,
2016,Bushwick Farmers' Market on Broadway,Brooklyn,Halsey St & Broadway,303,40.68576938,-73.91550225,Thursday,2pm-7pm,6/30/2016-11/17/2016,Yes,No,No,No,,,
2016,Carroll Gardens Greenmarket,Brooklyn,Carroll St bet Court & Smith Sts,306,40.68054952,-73.99465464,Sunday,8am-3pm,Year-round,Yes,Yes,No,No,,,
2016,Cortelyou Greenmarket,Brooklyn,Cortelyou Rd bet Argyle & Rugby Rds,314,40.64083294,-73.9653021,Sunday,8am-3pm,Year-round,Yes,Yes,No,No,,,
2016,Cypress Hills Youthmarket,Brooklyn,Fulton & Richmond Sts,305,40.68204661,-73.87786931,Friday,11am-6pm,7/8/2016-11/18/2016,Yes,No,Yes,No,,,
2016,DUMBO Down to Earth Farmers' Market,Brooklyn,Pearl & Water Sts,302,40.70313843,-73.98759106,Wednesday,12pm-7pm,6/8/2016-11/16/2016,Yes,No,No,No,,,
2016,East New York Farm Stand,Brooklyn,New Lots Ave bet Alabama & Georgia Aves,305,40.6611343,-73.89469308,Wednesday,3:30pm-6:30pm,7/6/2016-10/26/2016,Yes,No,No,No,,,
2016,East New York Farmers' Market ,Brooklyn,Schenck Ave bet New Lots & Livonia Aves,305,40.6658587,-73.8866906,Saturday ,9am-3pm,6/25/2016-11/26/2016,Yes,No,Yes,No,,,
2016,Edible Schoolyard NYC's Farm Stand at PS 216 (Sept-Nov only),Brooklyn,Avenue X & East 1st St,315,40.5906565,-73.96929957,Friday,1:45pm-2:45pm,9/9/2016-11/18/2016,Yes,No,No,No,,,
2016,Flatbush Junction Youthmarket,Brooklyn,Nostrand & Flatbush Aves by subway entrance,314,40.63289384,-73.94769921,Saturday,8:30am-3pm,7/9/2016-11/19/2016,Yes,No,No,No,,,
2016,Fort Greene Park Greenmarket,Brooklyn,Washington Park bet DeKalb & Willoughby Aves,302,40.69171508,-73.97354058,Saturday ,8am-4pm,Year-round,Yes,Yes,Yes,No,,,
2016,Graham Avenue Farmers' Market,Brooklyn,Cook St & Graham Ave,301,40.7023534,-73.94238272,Saturday,8am-5pm,7/2/2016-10/29/2016,Yes,No,Yes,No,,,
2016,Grand Army Plaza Greenmarket,Brooklyn,Prospect Park W & Flatbush Ave ,355,40.67242371,-73.9701927,Saturday,8am-4pm,Year-round,Yes,Yes,No,No,,,
2016,Greenpoint McCarren Park Greenmarket,Brooklyn,Union Ave bet Driggs Ave & N 12th St,301,40.71922733,-73.95247994,Saturday,8am-3pm,Year-round,Yes,Yes,No,No,,,
2016,Harvest Home Cityline Farmers' Market,Brooklyn,Drew St bet 101 & Liberty Aves,305,40.67935962,-73.86335192,Saturday,8am-4pm,7/9/2016-11/19/2016,Yes,No,No,No,,,
2016,Harvest Home Clinton Hill Farmers' Market,Brooklyn,Lafayette bet Waverly & Washington Aves,302,40.68821896,-73.96582192,Tuesday,8am-4pm,7/5/2016-11/22/2016,Yes,No,No,No,,,
2016,Harvest Home Coney Island Hospital Farmers' Market,Brooklyn,Ocean Pkwy bet Ave Z & Shore Pkwy,313,40.58656038,-73.96616917,Wednesday & Friday,8am-4pm,6/15/2016-11/25/2016,Yes,No,No,No,,,
2016,Harvest Home Kings County Hospital Farmers' Market,Brooklyn,Clarkson Ave bet E 37th and E 38th Sts,317,40.65583545,-73.94335635,Wednesday,8am-4pm,6/8/2016-11/23/2016,Yes,No,No,No,,,
2016,Harvest Home Marcy Park Farmers' Market,Brooklyn,Myrtle & Marcy Aves,302,40.69538491,-73.94920807,Thursday,8am-4pm,7/7/2016-11/17/2016,Yes,No,No,No,,,
2016,Hattie Carthan After Church Farmers' Market,Brooklyn,49 Van Buren St bet Tompkins & Throop Aves,303,40.6900437,-73.94355807,Sunday,1pm-6pm,8/7/2016-11/20/2016,Yes,No,No,No,,,
2016,Hattie Carthan Community Farmers' Market,Brooklyn,Marcy Ave & Clifton Pl,303,40.68951881,-73.94804063,Saturday,9am-3pm,7/16/2016-11/16/2016,Yes,No,No,No,,,
2016,High School for Public Service Youth Farm Farmers' Market,Brooklyn,600 Kingston Ave bet Rutland Rd & Winthrop St,309,40.65890092,-73.94245989,Wednesday,2:30pm-6:30pm,6/22/2016-10/26/2016,Yes,No,No,No,,,
2016,Isabahlia Farm Stand,Brooklyn,Rockaway & Sutter Aves,316,40.66716393,-73.91009357,Friday,12pm-5pm,7/1/2016-10/28/2016,Yes,No,Yes,No,,,
2016,Isabahlia Farm Stand Winter Market (Nov-Dec only),Brooklyn,"New Lots Ave & Sackman St, inside greenhouse",316,40.65792927,-73.90188848,Saturday,8am-1pm,11/5/2016-12/17/2016,Yes,No,No,No,,,
2016,Isabahlia Farmers' Market,Brooklyn,Livonia Ave bet Powell & Junius Sts,316,40.66366549,-73.90145111,Saturday,8am-4pm,6/25/2016-10/29/2016,Yes,No,Yes,No,,,
2016,Kensington Youthmarket,Brooklyn,Ft. Hamilton Pkwy bet E 4th & E 5th Sts,312,40.64917445,-73.97660258,Saturday,8am-4pm,6/4/2016-11/19/2016,Yes,No,No,No,,,
2016,LIVE Market ,Brooklyn,"Paerdegat Park, E 40th St bet Foster Ave & Farragut Rd",317,40.63920792,-73.93873318,Sunday,9am-3pm,6/5/2016-11/13/2016,Yes,No,No,No,,,
2016,Malcolm X Blvd Farmers' Market,Brooklyn,Malcolm X Blvd bet Marion & Chauncey Sts,303,40.68051375,-73.92857127,Saturday ,8am-3pm,7/9/2016-11/12/2016,Yes,No,No,No,,,
2016,Marcy Plaza Community Farmers' Market,Brooklyn,Fulton St & Marcy Ave,303,40.68013369,-73.9459251,Wednesday,11am-6pm,7/13/2016-11/9/2016,Yes,No,Yes,No,,,
2016,McGolrick Park's Down to Earth Farmers' Market,Brooklyn,"Russel St & Nassau Ave, center of park",301,40.72562454,-73.94449844,Sunday,10am-4pm,4/24/2016-11/20/2016,Yes,No,No,No,,,
2016,Park Slope's Down to Earth Farmers' Market,Brooklyn,5th Ave & 4th St,306,40.67220165,-73.98378638,Wednesday & Sunday,"Wednesday: 3-7pm
Sunday: 10am-5pm","Wednesday: 5/11-11/16
Sunday: Year-round",Yes,Yes,No,No,,,
2016,Parkside Plaza Greenmarket,Brooklyn,Parkside & Ocean Aves,314,40.65489064,-73.96188178,Sunday,8am-4pm,6/12/2016-11/20/2016,Yes,No,Yes,No,,,
2016,Pitkin Verde Farmers' Market,Brooklyn,2094 Pitkin Ave at Pennsylvania Ave,305,40.67198493,-73.89524914,Tuesday,9am-5pm,6/28/2016-11/22/2016,Yes,No,No,No,,,
2016,Project EATS Brooklyn Museum Farm Market,Brooklyn,200 Eastern Parkway,303,40.67190876,-73.96337171,Thursday,10am-4pm,5/20/2016-11/30/2016,Yes,No,No,No,,,
2016,Project EATS Marcus Garvey Village Farm Market,Brooklyn,300 Chester St at Dumont Ave,316,40.66448525,-73.91038554,Tuesday,10am-4pm,5/20/2016-11/30/2016,Yes,No,No,No,,,
2016,Red Hook Farmers' Market,Brooklyn,580 Columbia St,306,40.6722352,-74.01100736,Saturday,8am-3pm,6/18/2016-11/19/2016,Yes,No,No,No,,,
2016,Saratoga Youth Market,Brooklyn,Saratoga Ave & Fulton St,303,40.67858414,-73.91630091,Saturday,10am-2pm,6/18/2016-11/19/2016,Yes,No,No,No,,,
2016,Sunset Park Greenmarket,Brooklyn,4th Ave bet 59th & 60th Sts,307,40.64084493,-74.01843209,Saturday,8am-3pm,7/9/2016-11/19/2016,Yes,No,Yes,No,,,
2016,Urban Oasis Farmers' Market,Brooklyn,Clarkson & Troy Aves,309,40.65624918,-73.93668483,Wednesday,2pm-5:30pm,6/24/2016-11/9/2016,Yes,No,No,No,,,
2016,Williamsburg Greenmarket,Brooklyn,Taylor St & Lee Ave,301,40.70700548,-73.96136506,Thursday ,8am-4pm,7/7/2016-11/17/2016,Yes,No,Yes,No,,,
2016,57th Street Greenmarket,Manhattan,57th St & 9th Ave,104,40.76792538,-73.98571616,Wednesday & Saturday ,8am-5pm,5/18/2016-12/24/2016,Yes,No,No,No,,,
2016,79th Street Greenmarket,Manhattan,Columbus Ave bet 78th & 81st Sts,107,40.78325007,-73.97454056,Sunday,9am-5pm,Year-round,Yes,Yes,No,No,,,
2016,82nd Street Greenmarket,Manhattan,82nd St bet 1st and York Aves ,108,40.77344836,-73.94895357,Saturday,9am-2:30pm,Year-round,Yes,Yes,No,No,,,
2016,92nd Street Greenmarket,Manhattan,92nd St & 1st Ave,108,40.78132447,-73.94613107,Sunday ,9am-4pm,6/26/2016-11/20/2016,Yes,No,No,No,,,
2016,97th Street Greenmarket,Manhattan,97th St bet Columbus & Amsterdam Aves,107,40.79474389,-73.96987361,Friday ,8am-2pm,Year-round,Yes,Yes,Yes,No,,,
2016,125th Street FreshConnect Farmers' Market,Manhattan,125th St & Adam Clayton Powell Jr Blvd,110,40.80898137,-73.94832667,Tuesday,10am-7pm,6/7/2016-11/22/16,Yes,No,Yes,No,,,
2016,175th Street Greenmarket,Manhattan,175th St bet Wadsworth Ave & Broadway,112,40.84595574,-73.93781267,Thursday ,8am-5pm,6/30/2016-11/17/2016,Yes,No,Yes,No,,,
2016,Abingdon Square Greenmarket,Manhattan,12th St & 8th Ave,102,40.73755554,-74.0048296,Saturday ,8am-2pm,Year-round,Yes,Yes,No,No,,,
2016,Bowling Green Greenmarket,Manhattan,Broadway & Battery Pl,101,40.70455726,-74.01429119,Tuesday & Thursday,8am-5pm,Year-round,Yes,Yes,No,No,,,
2016,Broadway French Market,Manhattan,Broadway bet 35th & 36th Sts,105,40.75099661,-73.98774302,"Wednesday, Thursday & Friday ",11am-6pm,5/4/2016-11/23/2016,No,No,No,No,,,
2016,Chelsea's Down to Earth Farmers' Market,Manhattan,23rd Street between 8th and 9th Aves,104,40.74530132,-73.99848932,Saturday,9am-5pm,5/21/2016-12/17/2016,Yes,No,No,No,,,
2016,Chenchita's Community Garden,Manhattan,112th St & Madison Ave,111,40.79745827,-73.94670311,Saturday,9am-3pm,7/9/2016-,Yes,No,No,No,,,
2016,City Hall Greenmarket,Manhattan,Broadway & Chambers St,101,40.71417288,-74.00631047,Tuesday & Friday ,8am-4pm,4/1/2016-12/23/2016,Yes,No,No,No,,,
2016,Columbia University Greenmarket,Manhattan,Broadway bet 114th & 116th Sts,109,40.80801018,-73.96390007,Thursday & Sunday ,8am-5pm,Year-round,Yes,Yes,No,No,,,
2016,Dag Hammarskjold Plaza Greenmarket,Manhattan,47th St & 2nd Ave,106,40.75300739,-73.96988887,Wednesday,8am-4pm,Year-round,Yes,Yes,No,No,,,
2016,El Barrio Youth Marqueta,Manhattan,116th St & Park Ave,111,40.7993148,-73.94323426,Thursday & Saturday,11am-5pm,7/9/2016-11/20/2016,Yes,No,No,No,,,
2016,Fort Washington Greenmarket,Manhattan,168th St & Ft. Washington Ave,112,40.84216213,-73.94227971,Tuesday,8am-4pm,6/7/2016-11/22/2016,Yes,No,No,No,,,
2016,Gouverneur Health Youthmarket,Manhattan,Madison St bet Clinton & Jefferson Sts,103,40.71291247,-73.98692913,Thursday,8:30am-3pm,7/7/2016-11/17/2016,Yes,No,No,No,,,
2016,Grass Roots Farmers' Market,Manhattan,145th St bet Edgecombe & Bradhurst Aves,109,40.82326784,-73.94292478,Tuesday,9am-4pm,7/5/2016-11/29/2016,Yes,No,Yes,No,,,
2016,Hamilton Heights Green Youth Market,Manhattan,Amsterdam between 143rd & 144th Sts,109,40.82394844,-73.94855352,Wednesday,11am-5pm,,Yes,No,No,No,,,
2016,Harvest Home East Harlem Farmers' Market,Manhattan,104th St & 3rd Ave,111,40.79026109,-73.9456363,Thursday,8am-4pm,7/7/2016-11/17/2016,Yes,No,No,No,,,
2016,Harvest Home East River Farmers' market,Manhattan,1st Ave bet 108th & 109th Sts,111,40.79091383,-73.93913168,Sunday,9am-4pm,7/10/2016-11/20/2016,Yes,No,No,No,,,
2016,Harvest Home Harlem Hospital Farmers' Market,Manhattan,506 Lenox Ave between 135th & 137th Sts,110,40.81543807,-73.93997471,Friday,8am-6pm,Year-round,Yes,Yes,No,No,,,
2016,Harvest Home Lenox Ave Farmers' Market,Manhattan,Lenox Ave bet 117th & 118th Sts,110,40.80309427,-73.94897343,Saturday,8am-5pm,6/18/2016-11/19/2016,Yes,No,No,No,,,
2016,Harvest Home Metropolitan Farmers' Market,Manhattan,99th St & 3rd Ave,111,40.78712766,-73.94792473,Friday,8am-4pm,6/10/2016-11/18/2016,Yes,No,No,No,,,
2016,Harvest Home West Harlem Farmers' Market,Manhattan,Broadway bet 137th & 138th Sts,109,40.82138997,-73.95413402,Tuesday,8am-4pm,7/5/2016-11/22/2016,Yes,No,No,No,,,
2016,Inwood Park Greenmarket,Manhattan,Isham St bet Seaman Ave & Cooper St,112,40.86900872,-73.92032044,Saturday ,8am-3pm,Year-round,Yes,Yes,No,No,,,
2016,Lower East Side Youthmarket,Manhattan,Grand Ave bet Pitt & Willet Sts,103,40.71521773,-73.98425929,Thursday,8am-4pm,7/7/2016-11/17/2016,Yes,No,No,No,,,
2016,Morningside Park's Down to Earth Farmers' Market,Manhattan,110th St & Manhattan Ave,107,40.80116343,-73.95964893,Saturday ,9am-5pm,4/23/2016-12/17/2016,Yes,No,No,No,,,
2016,Mount Sinai Hospital Greenmarket,Manhattan,99th St & Madison Ave,111,40.78917731,-73.95274419,Wednesday,8am-5pm,6/29/2016-11/23/2016,Yes,No,No,No,,,
2016,Project EATS Frederick Douglas Houses Farmers' Market,Manhattan,100th St bet Amsterdam and Columbus Aves,107,40.79735361,-73.96798349,Saturday,10am-4pm,5/20/2016-11/30/2016,Yes,No,No,No,,,
2016,Project Harmony People's Market,Manhattan,122nd St bet 7th and 8th Aves,110,40.80824762,-73.95258616,Thursday,1pm-7pm,6/9/2016-10/20/2016,Yes,No,No,No,,,
2016,PS 11 Farm Market,Manhattan,21st St bet 8th and 9th Aves,104,40.74521622,-74.00226784,Wednesday,8am-10am,6/6/2016-11/16/2016,Yes,No,No,No,,,
2016,PS 7 Farm Stand,Manhattan,"119th St & Lexington Ave, in schoolyard",111,40.80056486,-73.94020642,Wednesday,2:15pm-3:30pm,May-June & Sept - Nov,Yes,No,No,No,,,
2016,Rockefeller Center Greenmarket,Manhattan,Rockefeller Plaza at 50th St,105,40.75907246,-73.97845183,"Wednesday, Thursday & Friday",8am-5pm,July-August,No,No,No,No,,,
2016,SoHA Square Farmers' Market,Manhattan,117th St & St Nicholas Ave,110,40.80520462,-73.95481703,Saturday & Sunday,9am-4pm,7/2/2016-11/20/2016,Yes,No,No,No,,,
2016,St. Mark's Church Greenmarket,Manhattan,10th St & 2nd Ave,103,40.72978449,-73.98681036,Tuesday,8am-6pm,6/7/2016-11/22/2016,Yes,No,No,No,,,
2016,Staten Island Ferry Whitehall Terminal Greenmarket,Manhattan,"4 South St, inside terminal",101,40.70164259,-74.01186697,Tuesday & Friday ,8am-7pm,Year-round,Yes,Yes,No,No,,,
2016,Stuyvesant Town Greenmarket,Manhattan,14th St Loop bet 1st Ave & Ave A,103,40.73045054,-73.98034091,Sunday,9:30am-4pm,5/15/2016-12/18/2016,Yes,No,No,No,,,
2016,Sugar Hill Greenmarket,Manhattan,155th St & St Nicholas Ave,109,40.83090012,-73.94136802,Saturday,8am-4pm,6/18/2016-11/19/2016,Yes,No,Yes,No,,,
2016,Tompkins Square Greenmarket,Manhattan,7th St & Ave A,103,40.72606217,-73.98353516,Sunday,9am-6pm,Year-round,Yes,Yes,No,No,,,
2016,Tribeca Greenmarket,Manhattan,Greenwich & Chambers Sts,101,40.7163107,-74.01096775,Wednesday & Saturday ,8am-3pm,"Wed: 4/6/2016-12/21/2016
Sat: Year-round",Yes,Yes,No,No,,,
2016,Tucker Square Greenmarket,Manhattan,66th St & Columbus Ave,107,40.77360915,-73.98157377,Thursday & Saturday,8am-5pm,Year-round,Yes,Yes,No,No,,,
2016,Union Square Greenmarket,Manhattan,17th St & Broadway,105,40.73714078,-73.99033077,"Monday, Wednesday, Friday & Saturday",8am-6pm,Year-round,Yes,Yes,No,No,,,
2016,Water Street Greenmarket,Manhattan,Water Street & Coenties Slip,101,40.70327588,-74.01034887,Thursday,8am-6pm,6/2/2016-11/17/2016,Yes,No,No,No,,,
2016,Astoria Greenmarket,Queens,14th St bet 31st Ave & 31st Rd,401,40.76826578,-73.93202594,Wednesday,8am-3pm,7/6/2016-11/16/2016,Yes,No,No,No,,,
2016,Corona Greenmarket,Queens,Roosevelt Ave & 103rd St,404,40.74987737,-73.86272726,Friday,8am-3pm,7/8/2016-11/18/2016,Yes,No,Yes,No,,,
2016,Culinary Kids Farm Rockaway,Queens,444 Beach 58th St & Beach Channel Dr,409,40.59450005,-73.78807882,Saturday & Sunday,10am-4pm,7/9/2016-11/26/2016,Yes,No,No,No,,,
2016,Culinary Kids Farmers' Market (July - Sept only),Queens,30-15 Seagirt Blvd,414,40.59596389,-73.76321033,Saturday,10am-3pm,7/9/2016-9/24/2016,Yes,No,No,No,,,
2016,Ditmars Park Youthmarket,Queens,Steinway St bet Ditmars Blvd & 23rd Ave,401,40.77286145,-73.90606247,Saturday,9am-4pm,7/9/2016-11/19/2016,Yes,No,No,No,,,
2016,Elmhurst Hospital Greenmarket,Queens,41st Ave bet 80th & 81st Sts,404,40.74589948,-73.88456233,Tuesday,8am-4pm,6/7/2016-11/22/2016,Yes,No,No,No,,,
2016,Far Rockaway Youth Market,Queens,Beach 45th St & Beach Channel Dr ,414,40.59562006,-73.77655262,Saturday,10am-2pm,6/18/2016-11/19/2016,Yes,No,No,No,,,
2016,Forest Hills Greenmarket,Queens,Queens Blvd & 70th Ave,406,40.72188853,-73.84638618,Sunday,8am-3pm,Year-round,Yes,Yes,No,No,,,
2016,Harvest Home Rochdale Mall Farmers' Market,Queens,Baisley Blvd bet Guy R Brewer & Bedell St,412,40.67837307,-73.77948046,Saturday,8am-4pm,7/9/2016-11/19/2016,Yes,No,No,No,,,
2016,Jackson Heights Greenmarket,Queens,34th Ave & 78th St,403,40.75334737,-73.88875792,Sunday,8am-3pm,Year-round,Yes,Yes,Yes,No,,,
2016,Jamaica's Down to Earth Farmers' Market - Friday market,Queens,Parsons Blvd bet Jamaica and Archer Aves,412,40.70248213,-73.79992225,Friday,8:30am-4pm,6/17/2016-11/19/2016,Yes,No,No,No,,,
2016,Jamaica's Down to Earth Farmers' Market - Saturday market,Queens,160th St & Jamaica Ave,412,40.70375985,-73.7991502,Saturday,8:30am-4pm,6/17/2016-11/19/2016,Yes,No,No,No,,,
2016,Pomonok Community-Run Farmers' Market,Queens,67-09 Kissena Blvd,408,40.73504052,-73.81466206,Wednesday,9am-6pm,6/15/2016-11/23/2016,Yes,No,No,No,,,
2016,Queens Botanical Garden's Down to Earth Farmers' Market,Queens,Dahlia Ave at Main St ,407,40.75186765,-73.82636341,Friday,8:30am-4pm,6/17/2016-11/18/2016,Yes,No,No,No,,,
2016,Queens Hospital Center Farmers' Market,Queens,"82-68 164th St, in front of Ambulatory Care Pavilion",408,40.71723366,-73.8036028,Thursday,8am-5pm,7/14/2016-11/18/2016,Yes,No,No,No,,,
2016,Queens Hospital Center Farmers' Market II,Queens,"114-02 Guy R Brewer Blvd., Jamaica",412,40.68876005,-73.78567342,Thursday,8am-4pm,7/14/2016-11/18/2016,Yes,No,No,No,,,
2016,Ridgewood Youthmarket,Queens,Cypress Ave bet Myrtle & Putnam Aves,405,40.70037567,-73.90661902,Saturday,8am-4pm,7/9/2016-11/19/2016,Yes,No,No,No,,,
2016,Rockaway Beach Youthmarket,Queens,Beach 58th St & Beach Channel Dr,414,40.59450005,-73.78807882,Saturday,9am-3pm,7/9/2016-11/19/2016,Yes,No,No,No,,,
2016,Socrates Sculpture Park Greenmarket,Queens,"Vernon Blvd & Broadway, inside park",402,40.7677,-73.93618537,Saturday,8am-4pm,6/4/2016-11/19/2016,Yes,No,No,No,,,
2016,Sunnyside Greenmarket,Queens,Skillman Ave bet 42nd & 43rd Sts,402,40.74689899,-73.92079851,Saturday,8am-3pm,Year-round,Yes,Yes,No,No,,,
2016,Skyline Youth Farmers' Market,Staten Island,Clyde Pl bet Prospect & Harvard Aves,501,40.639903,-74.08953,Saturday,9am-12pm,6/25/2016-11/2/2016,No,No,No,No,,,
2016,Snug Harbor Farmers' Market,Staten Island,1000 Richmond Terrace,501,40.642627,-74.101258,Friday,3pm-5pm,6/17/2016-11/18/2016,No,No,No,No,,,
2016,St. George Greenmarket,Staten Island,St. Marks Pl & Hyatt St,501,40.641607,-74.077292,Saturday,8am-2pm,Year-round,Yes,Yes,No,No,,,
2016,Staten Island Mall Greenmarket,Staten Island,Marsh Ave & Ring Rd,502,40.583867,-74.159757,Saturday,8am-3pm,6/4/2016-11/19/2016,Yes,No,No,No,,,
2017,170 Farm Stand,Bronx,170th St and Townsend Ave,204,40.840095,-73.916827,Wednesday,2:30pm-6:30pm,7/5/2017-11/22/2017,Yes,No,No,Yes,,,
2017,Bissel Gardens Farmers' Market,Bronx,Baychester Ave & E 241st St ,212,40.90152793,-73.84693885,Wednesday & Saturday,9am-5pm,7/9/2016-11/19/2016,Yes,No,No,No,,,
2017,Bronx Borough Hall Greenmarket,Bronx,Grand Concourse bet. 161st St. & 162nd St.,204,40.82772964,-73.92223437,Tuesday ,8am-4pm,6/6/2017 -11/28/2017 ,Yes,No,Yes,No,,,
2017,Fordham Plaza Greenmarket ,Bronx,Fordham Plaza - Park Ave. btw 189th St. and E Fordham Rd. ,206,40.860343,-73.891224,Wednesday,8am-4pm,6/7/2017-12/20/2017,Yes,No,Yes,No,,,
2017,Friends of Van Cortlandt Park Amalgamated Housing Youth Farmstand,Bronx,Orloff Ave & Gale Pl ,208,40.88268166,-73.89010772,Wednesday,2pm-7pm,7/12/2017-11/1/2017,Yes,No,No,No,,,
2017,Harvest Home Co-op City Farmers' Market,Bronx,Asch Loop & Aldrich St.,210,40.87278628,-73.82615613,Wednesday,8am-4pm,7/5/2017-11/22/2017,Yes,No,No,No,,,
2017,Harvest Home Hunts Point Market,Bronx,E 163rd St & Hunts Point Ave,210,40.82099409,-73.89161474,Wednesday,8am-4pm,7/14/2017-11/22/2017,Yes,No,No,No,,,
2017,Harvest Home Jacobi Hospital Farmers' Market,Bronx,1400 Pelham Pkwy at Eastchester Rd,211,40.8574346,-73.84708009,Tuesday & Friday,8am-4pm,6/6/2017-11/24/2017,Yes,No,No,No,,,
2017,Harvest Home Mt. Eden Farmers' Market,Bronx,Mt. Eden & Morris Aves,204,40.84276419,-73.9095888,Tuesday & Thursday,8am-4pm,6/9/2017-11/23/2017,Yes,No,No,No,,,
2017,Harvest Home North Central Bronx Farmers' Market,Bronx,Mosholu Pkwy & Jerome Ave,207,40.87887971,-73.88567667,Wednesday,8am-4pm,7/14/2017-11/23/2017,Yes,No,No,No,,,
2017,Harvest Home Soundview Farmers' Market,Bronx,Morrison Ave & Harrod Pl,209,40.82905437,-73.87443772,Saturday,8am-4pm,6/17/2017-11/18/2017,Yes,No,No,No,,,
2017,Harvest Home St. Mary's Park Market,Bronx,149th St & St. Ann's Ave,201,40.81427663,-73.91295475,Thursday,8am-4pm,7/6/2017-11/23/2017,Yes,No,No,No,,,
2017,Kingsbridge-Riverdale Farmers' Market ,Bronx,260 W 231st St,208,40.879974,-73.907356,Sunday,9am-5pm,6/11/2017-11/26/2017,No,No,No,No,,,
2017,La Familia Verde Farmers' Market,Bronx,E Tremont Ave bet LaFontaine & Arthur Aves,206,40.84649501,-73.8943382,Tuesday,8am-3pm,7/11/2017-11/14/2017,Yes,No,Yes,No,,,
2017,"Learn It, Grow It, Eat It Youthmarket",Bronx,McKinley Sq at 169th St & Boston Rd,203,40.83115177,-73.90016595,Wednesday,10am-3pm,7/5/2017-11/22/2017,Yes,No,No,No,,,
2017,Lincoln Hospital Greenmarket,Bronx,149th St. between Park Ave. & Morris Ave.,201,40.81739612,-73.92275947,Tuesday & Friday,8am-3pm,6/30/2017-11/21/2017,Yes,No,No,No,,,
2017,Mott Haven Farmers' Market ,Bronx,"139th St & St. Ann's Ave, at Padre Plaza Success Garden",201,40.80751388,-73.91701657,Monday,10am-4pm,7/10/2017-11/13/2017,Yes,No,Yes,No,,,
2017,Norwood Youthmarket,Bronx,E Gun Hill Rd & Dekalb Ave,207,40.88222844,-73.88045976,Thursday,12pm-7pm,7/6/2017-11/16/2017,Yes,No,No,No,,,
2017,Parkchester Greenmarket,Bronx,Westchester Ave. & White Plains Rd.,209,40.83305633,-73.86254119,Friday,8am-4pm,6/16/2017-11/17/2017,Yes,No,Yes,No,,,
2017,Poe Park Greenmarket,Bronx,E. 192 St. & Grand Concourse,207,40.864381,-73.895027,Tuesday,8am-3pm,6/20/2017-11/28/2017 ,Yes,No,Yes,No,,,
2017,Riverdale Y Sunday Farmers' Market,Bronx,"MS/HS 141, Independence Ave bet 236th & 237th Sts",208,40.887714,-73.913255,Sunday,9am-2pm,4/23/2017-12/3/2017,No,No,No,No,,,
2017,Riverdale Youthmarket ,Bronx,256th St & Mosholu Ave,208,40.90387505,-73.90311352,Thursday,1pm-7pm,7/6/2017-10/26/2017,Yes,No,No,No,,,
2017,South Bronx Farmers' Market,Bronx,138th St bet Willis & Alexander Aves,201,40.81006105,-73.92514495,Wednesday & Saturday,10am-4pm,6/17/2017-11/22/2017,Yes,No,Yes,Yes,,,
2017,Taqwa Community Farmers' Market,Bronx,90 West 164th St bet Ogden & Nelson Aves Ogden Aves,204,40.83292449,-73.92938696,Saturday ,10am-4pm,7/8/2017-10/28/2017,Yes,No,No,No,,,
2017,Bartel-Pritchard Square Greenmarket,Brooklyn,Prospect Park W and 15th St.,306,40.869727,-73.857372,Wednesday,1pm-6pm,6/15/2017-11/15/2017,Yes,No,No,No,,,
2017,Bay Ridge Greenmarket,Brooklyn,95 St & 3 Ave.,310,40.66096396,-73.98020639,Wednesday & Sunday ,8am-3pm,"Year-round on Wednesdays;
Sunday 5/7/2017-12/17/2017",Yes,Yes,No,No,,,
2017,Bensonhurst Greenmarket,Brooklyn,81 St. & 18 Ave.,311,40.61728571,-74.03358994,Saturday,8am-3pm,5/13/2017-11/18/2017,Yes,No,No,No,,,
2017,Borough Park Greenmarket,Brooklyn,14 Ave. between 49 St. & 50 St.,312,40.60966683,-73.99975579,Sunday,9am-4pm,6/4/2017-11/19/2017,Yes,No,Yes,No,,,
2017,Brooklyn Borough Hall Greenmarket,Brooklyn,Court St. and Montague St.,302,40.63370403,-73.98991701,Thursday,8am-3pm,7/6/2017-11/212017,Yes,No,No,No,,,
2017,Brooklyn Museum Farm Stand,Brooklyn,200 Eastern Parkway  ,255,40.69372964,-73.99045606,"Tuesday, Thursday & Saturday ",8am-5pm,Year-round,Yes,Yes,No,No,,,
2017,Brownsville Pitkin Avenue Youthmarket,Brooklyn,Pitkin Ave & Thomas Boyland St,316,40.67190876,-73.96337171,Thursday,1pm-6pm,6/15/2017-11/15/2017,Yes,No,No,No,,,
2017,Brownsville Rockaway Youthmarket,Brooklyn,Rockaway & Livonia Aves,316,40.66927183,-73.91355493,Saturday ,9am-2pm,7/8/2017-11/18/2017,Yes,No,No,No,,,
2017,Carroll Gardens Greenmarket,Brooklyn,Carroll St. between Smith and Court St.,306,40.66256275,-73.90892112,Friday,11am-4pm,7/7/2017-11/17/2017,Yes,No,No,No,,,
2017,Cortelyou Greenmarket,Brooklyn,Cortelyou Rd. and Rugby Rd.,314,40.68054952,-73.99465464,Sunday,8am-2pm,Year-round,Yes,Yes,No,No,,,
2017,Cypress Hills Youthmarket,Brooklyn,Fulton & Richmond Sts,305,40.64083294,-73.9653021,Sunday,8am-3pm,Year-round,Yes,Yes,No,No,,,
2017,DUMBO Down to Earth Farmers' Market,Brooklyn,Pearl & Water Sts,302,40.68204661,-73.87786931,Friday,10am-5pm,7/7/2017-11/17/2017,Yes,No,No,No,,,
2017,East New York Farm Stand,Brooklyn,New Lots Ave bet Alabama & Georgia Aves,305,40.70313843,-73.98759106,Wednesday,11am-7pm,6/7/2017-11/15/2017,Yes,No,No,No,,,
2017,East New York Farmers' Market ,Brooklyn,Schenck Ave bet New Lots & Livonia Aves,305,40.6611343,-73.89469308,Wednesday,3:30pm-6:30pm,7/5/2017-10/25/2017,Yes,No,No,No,,,
2017,Edible Schoolyard NYC's Farm Stand at PS 216 - May-June & Sept-Nov only,Brooklyn,Avenue X & East 1st St,315,40.6658587,-73.8866906,Saturday ,9am-3pm,6/24/2017-11/25/2017,Yes,No,Yes,No,,,
2017,Flatbush Junction Youthmarket,Brooklyn,Nostrand & Flatbush Aves by subway entrance,314,40.5906565,-73.96929957,Friday,1:45pm-2:45pm,5/5-6/23; 9/8-11/17,Yes,No,No,No,,,
2017,Fort Greene Park Greenmarket,Brooklyn,Washington Park between Dekalb Ave. & Willoughby St.,302,40.63289384,-73.94769921,Saturday,8:30am-2pm,7/8/2017-11/18/2017,Yes,No,No,No,,,
2017,Graham Avenue Farmers' Market,Brooklyn,Cook St & Graham Ave,301,40.69171508,-73.97354058,Saturday,8am-3pm,Year-round,Yes,Yes,No,No,,,
2017,Grand Army Plaza Greenmarket,Brooklyn,"Northwest entrance to Prospect Park, at Flatbush Ave. and Prospect Park W",355,40.7023534,-73.94238272,Saturday,8am-5:30pm,7/8/2017-10/28/2017,Yes,No,Yes,No,,,
2017,Harvest Home Cityline Farmers' Market,Brooklyn,Drew St bet 101 & Liberty Aves,305,40.67242371,-73.9701927,Saturday,8am-4pm,Year-round,Yes,Yes,No,No,,,
2017,Harvest Home Clinton Hill Farmers' Market,Brooklyn,Lafayette Ave & Waverly Ave,302,40.67935962,-73.86335192,Saturday,8am-4pm,7/8/2017-11/18/2017,Yes,No,No,No,,,
2017,Harvest Home Coney Island Hospital Farmers' Market,Brooklyn,Ocean Pkwy bet Ave Z & Shore Pkwy,313,40.68821896,-73.96582192,Tuesday,8am-6pm,6/6/2017-11/21/2017,Yes,No,No,No,,,
2017,Harvest Home Kings County Hospital Farmers' Market,Brooklyn,Clarkson Ave bet E 37th and E 38th Sts,317,40.58656038,-73.96616917,Wednesday & Friday,8am-4pm,6/14/2017-11/22/2017,Yes,No,No,No,,,
2017,Harvest Home Marcy Park Farmers' Market,Brooklyn,Myrtle & Marcy Aves,302,40.65583545,-73.94335635,Wednesday,8am-6pm,6/7/2017-11/22/2017,Yes,No,No,No,,,
2017,Hattie Carthan After Church Farmers' Market,Brooklyn,49 Van Buren St bet Tompkins & Throop Aves,303,40.69538491,-73.94920807,Thursday,8am-4pm,7/6/2017-11/23/2017,Yes,No,No,No,,,
2017,Hattie Carthan Community Farmers' Market,Brooklyn,Marcy Ave & Clifton Pl,303,40.6900437,-73.94355807,Sunday,1pm-6pm,7/30/2017-11/19/2017,Yes,No,No,No,,,
2017,High School for Public Service Youth Farm Farmers' Market,Brooklyn,600 Kingston Ave bet Rutland Rd & Winthrop St,309,40.68951881,-73.94804063,Saturday,9am-3pm,7/22/2017-11/18/2017,Yes,No,No,No,,,
2017,Irving Square Park Youthmarket ,Brooklyn,Wilson Ave & Halsey St,304,40.65890092,-73.94245989,Wednesday,2:30pm-6:30pm,6/21/2017-10/25/2017,Yes,No,No,No,,,
2017,Isabahlia Farm Stand,Brooklyn,Rockaway & Sutter Aves,316,40.691594,-73.909549,Friday,12pm-5pm,9/1/2017-10/27/2017,Yes,No,No,No,,,
2017,Isabahlia Farmers' Market,Brooklyn,Livonia Ave bet Powell & Junius Sts,316,40.66716393,-73.91009357,Friday,11am-4pm,6/23/2017-10/27/2017,Yes,No,No,No,,,
2017,Isabahlia Farm Stand Winter Market ,Brooklyn,"New Lots Ave & Sackman St, inside greenhouse",316,40.65792927,-73.90188848,Saturday,8am-1pm,11/4/2017-12/16/2017,Yes,No,No,No,,,
2017,Kensington Youthmarket,Brooklyn,Ft. Hamilton Pkwy bet E 4th & E 5th Sts,312,40.66366549,-73.90145111,Saturday,8am-3pm,6/24/2017-10/28/2017,Yes,No,No,No,,,
2017,Malcolm X Blvd Farmers' Market,Brooklyn,Malcolm X Blvd bet Marion & Chauncey Sts,303,40.64917445,-73.97660258,Saturday,8am-3pm,6/3/2017-12/23/2017,Yes,No,No,No,,,
2017,Marcus Garvey Apartments Farm Stand,Brooklyn,"300 Chester St. Brooklyn, NY",316,40.68051375,-73.92857127,Saturday ,8am-3pm,mid July-October,Yes,No,No,No,,,
2017,Marcy Plaza Community Farmers' Market,Brooklyn,Fulton St & Marcy Ave,303,40.66448525,-73.91038554,Tuesday & Saturday,1pm-6pm,6/15/2017-11/15/2017,Yes,No,No,No,,,
2017,McCarren Park Greenmarket,Brooklyn,Union between Driggs and N12th St,301,40.68013369,-73.9459251,Wednesday,11:30am-6:30pm,7/12/2017-11/22/2017,Yes,No,Yes,No,,,
2017,McGolrick Park's Down to Earth Farmers' Market,Brooklyn,"Russell St & Nassau Ave, center of park",301,40.71922733,-73.95247994,Saturday,8am-3pm,Year-round,Yes,Yes,No,No,,,
2017,NYC Health + Hospital East New York Farmacy,Brooklyn,2094 Pitkin Ave,305,40.72562454,-73.94449844,Sunday,10am-4pm,5/7/2017-11/19/2017,Yes,No,No,No,,,
2017,Park Slope's Down to Earth Farmers' Market,Brooklyn,5th Ave & 4th St,306,40.671927,-73.895359,Monday & Wedneday,10am-3pm,6/15/2017-11/15/2017,Yes,No,Yes,No,,,
2017,Parkside Plaza Greenmarket,Brooklyn,Parkside Ave. and Ocean Ave.,314,40.67220165,-73.98378638,Wednesday & Sunday ,"Wed: 3pm-7pm
Sun: 10am-5pm,
(year round Sunday closes at 4)","5/17/2017-11/15/2017;
5/7/2017-12/24/2017",Yes,No,No,No,,,
2017,Pitkin Verde Farmers' Market,Brooklyn,2094 Pitkin Ave at Pennsylvania Ave,305,40.65489064,-73.96188178,Sunday,8am - 4pm,6/11/2017-11/19/2017,Yes,No,No,Yes,,,
2017,Project EATS Farmacy at the Brownsville Neighborhood Health Action Center,Brooklyn,259 Bristol St.,316,40.67198493,-73.89524914,Tuesday,9am-5pm,7/11/2017-11/21/2017,Yes,No,No,No,,,
2017,Putnam Triangle Youthmarket,Brooklyn,966 Fulton St,302,40.664677,-73.91135,Tuesday & Thursday,10am-3pm,6/15/2017-11/15/2017,Yes,No,Yes,No,,,
2017,RB Bushwick Farmers Market at Maria Hernandez Park ,Brooklyn,Knickerbocker Ave & Starr St ,304,40.682312,-73.962203,Wednesday,9am-2pm,9/6/2017-10/25/2017,Yes,No,No,No,,,
2017,RB Farmers Night Market ,Brooklyn,434 Troutman Street,304,40.70281849,-73.9253916,Saturday ,10am-4pm,5/20/2017-mid Nov,Yes,No,Yes,No,,,
2017,RB Farmers Market at Rheingold ,Brooklyn,555 Bushwick Ave ,304,40.70742,-73.922045,Friday,5pm-10pm,5/19/2017-11/2017,Yes,No,No,No,,,
2017,RB Youth Center Bushwick Farmers Market ,Brooklyn,1474 Gates Avenue,304,40.699668,-73.935453,Sunday,10am-4pm,5/21/2017- 11/2017,Yes,No,Yes,No,,,
2017,Red Hook Farm Stand,Brooklyn,580 Columbia St,306,40.697557,-73.914043,Thursday,4pm-7pm,5/18/2017-11/2017,Yes,No,No,No,,,
2017,Restoration Plaza Farm Stand,Brooklyn,Fulton St & Marcy Ave,303,40.6722352,-74.01100736,Saturday,10am-3pm,6/17/2017-11/18/2017,Yes,No,Yes,No,,,
2017,Saratoga Youth Market,Brooklyn,Saratoga Ave & Fulton St,303,40.67858414,-73.91630091,Saturday,10am-2pm,6/24/2017-11/25/2017,Yes,No,Yes,No,,,
2017,South Williamsburg Greenmarket,Brooklyn,Taylor St. and Lee Ave.,301,40.70700548,-73.96136506,Thursday ,8am - 4pm,7/6/2017-11/21/2017,Yes,No,Yes,No,,,
2017,Sunset Park Greenmarket,Brooklyn,59 St. & 4 Ave.,307,40.64084493,-74.01843209,Saturday,8am - 3pm, 7/1/2017-11/18/2017,Yes,No,Yes,No,,,
2017,Urban Oasis Farmers' Market,Brooklyn,Clarkson & Troy Aves,309,40.65624918,-73.93668483,Wednesday,2pm-5:30pm,6/28/2017-11/15/2017,Yes,No,No,No,,,
2017,Woodhull Hospital Youthmarket,Brooklyn,Marcus Garvey Blvd and Broadway,301,40.700254,-73.94124,Wednesday,8am-3pm,7/5/2017-11/22/2017,Yes,No,No,No,,,
2017,125th Street FreshConnect Farmers' Market,Manhattan,125th St & Adam Clayton Powell Jr Blvd,110,40.80898137,-73.94832667,Tuesday,10am-7pm,6/13/2017-11/21/2017,Yes,No,No,No,,,
2017,175th Street Greenmarket,Manhattan,175th St bet Wadsworth Ave & Broadway,112,40.84595574,-73.93781267,Thursday ,8am-5pm,6/29/2017-11/30/2017,Yes,No,Yes,No,,,
2017,57th Street Greenmarket,Manhattan,57th St & 9th Ave,104,40.76792538,-73.98571616,Wednesday & Saturday ,8am-5pm,5/17/2017-12/23/2017,Yes,No,No,No,,,
2017,79th Street Greenmarket,Manhattan,Columbus Ave bet 78th & 81st Sts,107,40.78325007,-73.97454056,Sunday,9am-5pm,Year-round,Yes,Yes,No,No,,,
2017,82nd Street Greenmarket,Manhattan,82nd St bet 1st and York Aves ,108,40.77344836,-73.94895357,Saturday,9am-2:30pm,Year-round,Yes,Yes,No,No,,,
2017,92nd Street Greenmarket,Manhattan,92nd St & 1st Ave,108,40.78132447,-73.94613107,Sunday ,9am-4pm,6/25/2017-11/19/2017,Yes,No,No,No,,,
2017,97th Street Greenmarket,Manhattan,97th St bet Columbus & Amsterdam Aves,107,40.79474389,-73.96987361,Friday ,8am-2pm,Year-round,Yes,Yes,Yes,No,,,
2017,Abingdon Square Greenmarket,Manhattan,W. 12th St. & 8th Ave.,102,40.73755554,-74.0048296,Saturday ,8am-2pm,Year-round,Yes,Yes,No,No,,,
2017,Bowling Green Greenmarket,Manhattan,Broadway & Battery Pl.,101,40.70455726,-74.01429119,Tuesday & Thursday,8am-5pm,Year-round,Yes,Yes,No,No,,,
2017,Broadway French Market,Manhattan,Broadway bet 35th & 36th Sts,105,40.75099661,-73.98774302,"Wednesday, Thursday & Friday ",11am-6pm,4/5/2017-10/27/2017,No,No,No,No,,,
2017,Bryant Park French Market,Manhattan,6th ave. & 42nd st. ,105,40.75507,-73.984141,Wednesday & Friday,8am-3pm,4/12/2017-10/13/2017,No,No,No,No,,,
2017,Chelsea's Down to Earth Farmers' Market,Manhattan,23rd Street between 8th and 9th Aves,104,40.74530132,-73.99848932,Saturday,9am-4pm,5/6/2017-11/18/2017,Yes,No,No,No,,,
2017,Chenchita's Community Garden ,Manhattan,112th St & Madison Ave,111,40.79745827,-73.94670311,Saturday,9am-3pm,7/15/2017-11/18/2017,Yes,No,No,No,,,
2017,City Hall Greenmarket,Manhattan,Broadway & Chambers St.,101,40.71417288,-74.00631047,Tuesday & Friday ,8am-4pm,3/3/2017-12/22/2017,Yes,No,No,No,,,
2017,Columbia University Greenmarket,Manhattan,Broadway and W. 114th St.,109,40.80801018,-73.96390007,Thursday & Sunday,8am-5pm,Year-round,Yes,Yes,No,No,,,
2017,Dag Hammarskjold Plaza Greenmarket,Manhattan,E. 47th St. & Second Ave,106,40.75300739,-73.96988887,Wednesday,8am-4pm,Year-round,Yes,Yes,No,No,,,
2017,El Barrio Youth Marqueta,Manhattan,116th St & Park Ave,111,40.7993148,-73.94323426,Thursday & Saturday,10am-4pm,7/6/2017-11/18/2017,Yes,No,No,No,,,
2017,Fort Washington Greenmarket,Manhattan,168th St. and Fort Washington Ave.,112,40.84216213,-73.94227971,Tuesday,8am-4pm,6/6/2017-11/21/2017,Yes,No,No,No,,,
2017,Frederick Douglass House Farm Stand,Manhattan,"101st st. and Columbus Ave. New York, NY",107,40.796082,-73.965217,Saturday,9am-3pm,6/15/2017-11/15/2017,Yes,No,No,No,,,
2017,Gouverneur Health Youthmarket,Manhattan,Madison St bet Clinton & Jefferson Sts,103,40.71291247,-73.98692913,Thursday,8:30am-2pm,7/6/2017-11/16/2017,Yes,No,No,No,,,
2017,Grass Roots Farmers' Market,Manhattan,"145th St bet Edgecombe & Bradhurst Aves, at Jackie Robinson Park",109,40.82326784,-73.94292478,Tuesday & Saturday,9am-4pm,7/4/2017-11/28/2017,Yes,No,Yes,No,,,
2017,Hamilton Heights Green Youthmarket,Manhattan,"Amsterdam bet W 143rd & 144th Sts., at Johnny Hartman Plaza",109,40.82394844,-73.94855352,Wednesday,10:30am-4:30pm,6/21/2017-11/22/2017,Yes,No,No,No,,,
2017,Harvest Home East Harlem Farmers' Market,Manhattan,104th St & 3rd Ave,111,40.79026109,-73.9456363,Thursday,8am-4pm,7/6/2017-11/23/2017,Yes,No,No,No,,,
2017,Harvest Home East River Farmers' market,Manhattan,1st Ave bet 108th & 109th Sts,111,40.79091383,-73.93913168,Saturday,8am-4pm,7/6/2017-11/23/2017,Yes,No,No,No,,,
2017,Harvest Home Harlem Hospital Farmers' Market,Manhattan,506 Lenox Ave between 135th & 137th Sts,110,40.81543807,-73.93997471,Friday,8am-7pm,Year-round,Yes,Yes,No,No,,,
2017,Harvest Home Lenox Ave Farmers' Market,Manhattan,Lenox Ave bet 117th & 118th Sts,110,40.80309427,-73.94897343,Saturday,8am-4pm,6/10/2017-11/18/2017,Yes,No,No,No,,,
2017,Harvest Home Metropolitan Farmers' Market,Manhattan,99th St & 3rd Ave,111,40.78712766,-73.94792473,Friday,8am-4pm,6/9/2017-11/17/2017,Yes,No,No,No,,,
2017,Harvest Home West Harlem Farmers' Market,Manhattan,Broadway bet 137th & 138th Sts,109,40.82138997,-73.95413402,Tuesday,8am-4pm,7/11/2017-11/21/2017,Yes,No,No,No,,,
2017,Hudson Yards Down to Earth Farmers' Market,Manhattan,Hudson Blvd East and W 34th Street ,104,40.755342,-74.000517,Thursday,12pm-6pm,6/8/2017-11/16/2017,Yes,No,No,No,,,
2017,Inwood Park Greenmarket,Manhattan,Isham St. between Seaman and Cooper,112,40.86900872,-73.92032044,Saturday ,8am-3pm,Year-round,Yes,Yes,No,No,,,
2017,Lower East Side Youthmarket,Manhattan,Grand Ave bet Pitt & Willet Sts,103,40.71521773,-73.98425929,Thursday,8am-3pm,6/1/2017-12/21/2017,Yes,No,No,No,,,
2017,Marcus Garvey Mart Farmers Market,Manhattan,W. 135th St. bet. 5th and Lenox Aves.,111,40.805901,-73.942783,Saturdays,8am-6pm,6/2/2017-12/30/2017,Yes,No,No,no,,,
2017,Morningside Park's Down to Earth Farmers' Market,Manhattan,110th St & Manhattan Ave,107,40.80116343,-73.95964893,Saturday ,9am-4pm,5/6/2017-12/30/2017,Yes,No,No,No,,,
2017,Mount Sinai Hospital Greenmarket,Manhattan,E. 99th St. betwen Madison Ave & Park Ave,111,40.78917731,-73.95274419,Wednesday,8am-5pm,6/14/2017-11/22/2017,Yes,No,No,No,,,
2017,Oculus Plaza Greenmarket,Manhattan,Church St at Fulton Street,101,40.711535,-74.010464,Tuesday,7am-7pm,6/20/2017-11/28/2017,Yes,No,No,No,,,
2017,PS 7 Farm Stand,Manhattan,"Lexington Ave & 119th St, in schoolyard",111,40.80056486,-73.94020642,Wednesday,2:15pm-4pm,"5/3/2017-6/21/2017;
9/13/2017-11/15/2017",Yes,No,No,No,,,
2017,PS 11 Farm Market,Manhattan,21st St bet 8th and 9th Aves,104,40.74521622,-74.00226784,Wednesday,8am-10am,6/7/2017-11/15/2017,Yes,No,No,No,,,
2017,PS 57 Youthmarket,Manhattan,115th street and 3rd Avenue,111,40.797169,-73.940872,Wednesday,9:00a.m.-4:00p.m.,7/5-11/22/2017,Yes,No,no,no,,,
2017,Rachel Mae's Market,Manhattan,Essex St bet Hester and Canal,103,40.715578,-73.989747,Saturday,10am-5pm,6/2017-12/2017,No,No,No,No,,,
2017,Rockefeller Center Greenmarket,Manhattan,Rockefeller Plaza between W. 50th St. & W. 51st St,105,40.75907246,-73.97845183,"Wednesday, Thursday & Friday ",8am-5pm ,7/26/2017 - 9/1/2017,Yes,No,No,No,,,
2017,St. Mark's Church Greenmarket,Manhattan,E 10th St & 2nd Ave,103,40.72978449,-73.98681036,Tuesday,8am-6pm ,6/6/2017-11/21/2017,Yes,No,No,No,,,
2017,Staten Island Ferry Whitehall Terminal Greenmarket,Manhattan,4 South St. (inside terminal),101,40.70164259,-74.01186697,Tuesday & Friday ,8am-7pm,Year-round ,Yes,Yes,No,No,,,
2017,Stuyvesant Town Greenmarket,Manhattan,"14th St. Loop & Ave. A (in the Oval), 10009",103,40.73045054,-73.98034091,Sunday,9:30am-4pm,5/21/2017-11/19/2017,Yes,No,No,No,,,
2017,Sugar Hill Greenmarket,Manhattan,W 155th St. and St. Nicholas Ave.,109,40.83090012,-73.94136802,Saturday ,8am-4pm,6/24/2017-11/18/2017,Yes,No,No,No,,,
2017,Tompkins Square Greenmarket,Manhattan,E. 7th St. & Ave. A,103,40.72606217,-73.98353516,Sunday,9am-6pm,Year-round,Yes,Yes,No,No,,,
2017,Tribeca Greenmarket,Manhattan,Greenwich & Chambers Sts,101,40.7163107,-74.01096775,Wednesday & Saturday ,8am-3pm,"4/5/2017-12/20/2017
Year-round on Saturday",Yes,No,No,No,,,
2017,Tucker Square Greenmarket,Manhattan,W. 66th St. and Columbus Ave,107,40.77360915,-73.98157377,Thursday & Saturday ,8am-5pm,Year-round,Yes,Yes,No,No,,,
2017,Union Square Greenmarket,Manhattan,"E. 17th St. & Broadway, 10003",105,40.73714078,-73.99033077,"Monday, Wednesday, Friday & Saturday",8am-6pm,Year-round,Yes,Yes,No,No,,,
2017,Water Street Greenmarket,Manhattan,Water Street and Coenties Slip,101,40.70327588,-74.01034887,Thursday,8am-6pm,6/1/2017-11/16/2017,Yes,No,No,No,,,
2017,Astoria Greenmarket,Queens,14th St. between 31st Ave. & 31st Rd.,401,40.76826578,-73.93202594,Wednesday,8am-3pm,7/5/2017 - 11/22/2017,Yes,No,No,No,,,
2017,Corona Greenmarket,Queens,Roosevelt Ave. & 104th St.,404,40.74987737,-73.86272726,Friday,8am-3pm,7/7/2017-11/17/2017,Yes,No,No,No,,,
2017,Cunningham Park's Down to Earth Farmers' Market,Queens,Union Turnpike & 196 Pl,408,40.731315,-73.774049,Sunday,9am-2pm,5/28/2017-11/19/2017,Yes,No,No,No,,,
2017,Ditmars Park Youthmarket,Queens,Steinway St bet Ditmars Blvd & 23rd Ave,401,40.77286145,-73.90606247,Saturday,8am-3pm,6/3/2017-11/18/2017,Yes,No,No,No,,,
2017,Elmhurst Hospital Greenmarket,Queens,"41st Ave., 80th St. & 81st St.",404,40.74589948,-73.88456233,Tuesday,8am-4pm,6/6/2017- 11/21/2017,Yes,No,No,No,,,
2017,Far Rockaway Youth Market (previously BSCAH Edgemere Farm),Queens,Beach 45th St & Beach Channel Dr ,414,40.59562006,-73.77655262,Saturday,10am-2pm,6/24/2017-11/25/2017,Yes,No,No,No,,,
2017,Flushing Greenmarket,Queens,Kissena Blvd and Maple Ave (Maple Playground),407,40.755925,-73.826093,Wednesday,8am-4pm,7/5/2017-11/22/2017,Yes,No,No,No,,,
2017,Forest Hills Greenmarket,Queens,70th Ave. & Queens Blvd.,406,40.72188853,-73.84638618,Sunday,8am-2pm,Year-round,Yes,Yes,No,No,,,
2017,Jackson Heights Greenmarket,Queens,34th Ave. between 77th St. and 78th St.,403,40.75334737,-73.88875792,Sunday,8am-2pm,Year-round,Yes,Yes,Yes,No,,,
2017,Jamaica's Down to Earth Farmers' Market - Friday market,Queens,Parsons Blvd bet Jamaica and Archer Aves,412,40.70248213,-73.79992225,Friday,8:30am-4pm,6/16/2017-11/17/2017,Yes,No,Yes,No,,,
2017,Jamaica's Down to Earth Farmers' Market - Saturday market,Queens,160th St & Jamaica Ave,412,40.70375985,-73.7991502,Saturday,8:30am-4pm,6/17/2017-11/18/2017,Yes,No,Yes,No,,,
2017,Pomonok Community-Run Farmers' Market,Queens,67-09 Kissena Blvd,408,40.73504052,-73.81466206,Wednesday,9am-5pm,7/5/2017-11/22/2017,Yes,No,No,No,,,
2017,Queens Botanical Garden's Down to Earth Farmers' Market,Queens,82 Dahllia Avenue,407,40.75186765,-73.82636341,Friday,8:30am-4pm,6/16/2017-11/17/2017,Yes,No,No,No,,,
2017,Queens Hospital Center Farmers' Market,Queens,"82-68 164th St, in front of Ambulatory Care Pavilion",408,40.71723366,-73.8036028,Thursday,8am-4pm,7/6/2017-11/16/2017,No,No,No,No,,,
2017,Queens Hospital Center Farmers' Market II,Queens,"114-02 Guy R Brewer Blvd., Jamaica",412,40.68876005,-73.78567342,Thursday,8am-4pm,7/6/2017-11/16/2017,No,No,No,No,,,
2017,Ridgewood Youthmarket,Queens,Cypress Ave bet Myrtle & Putnam Aves,405,40.70037567,-73.90661902,Saturday,8am-3pm,7/8/2017-11/18/2017,Yes,No,No,No,,,
2017,Rockaway Beach Youthmarket,Queens,Beach 58th St & Beach Channel Dr,414,40.59450005,-73.78807882,Saturday,9am-2pm,7/8/2017-11/18/2017,Yes,No,No,No,,,
2017,Sunnyside Greenmarket,Queens,Skillman Ave. between 42th St. & 43rd St.,402,40.74689899,-73.92079851,Saturday,8am-2pm,Year-round,Yes,Yes,No,No,,,
2017,Fairway Gardens Farm Stand,Staten Island,80 Park Hill Ave,501,40.617766,-74.079739,Friday,2pm-7pm,6/15/2017-11/15/2017,Yes,No,No,No,,,
2017,HEALTH for Youths Farm Stand ,Staten Island,Clyde Pl bet Prospect & Harvard Aves,501,40.639903,-74.08953,Saturday,10am-12pm,6/24/2017-11/25,No,No,No,No,,,
2017,St. George Greenmarket,Staten Island,Hyatt St. & St. Mark's Place,501,40.641607,-74.077292,Saturday,8am-2pm,Year-round,Yes,Yes,No,No,,,
2017,Staten Island Mall Greenmarket,Staten Island,Marsh Avenue & Ring Road,502,40.583867,-74.159757,Saturday,8am-3pm,5/6/2017-12/23/2017,Yes,No,No,No,,,
2018,Morning Glory Market at the New York Botanical Gardens,Bronx,2900 Southern Blvd.,227,40.865684,-73.883312,Wednesday,9am-3pm,6/13/18-10/31/18,Yes,No,No,No,,,
2018,Urban Oasis Farmers' Market,Brooklyn,681 Clarkson Ave.,309,40.656241,-73.936683,Wednesday,2pm-5:30pm,6/27/18-11/7/18,No,No,No,No,,,
2018,170 Farm Stand,Bronx,E 170th St & Townsend Ave,216,40.839882,-73.916783,Wednesday,2:30pm-6:30pm,7/11/18-11/21/18,Yes,No,No,Yes,,,
2018,Bissel Gardens Farmers' Market,Bronx,Baychester Ave & E 241st St ,212,40.90152,-73.846937,"Wednesday
Saturday",9am-5pm,7/11/18-11/21/18,No,No,No,No,,,
2018,Bronx Borough Hall Greenmarket,Bronx,Grand Concourse bet E 161st & 162nd Sts,204,40.826835,-73.922621,Tuesday, 8am-4pm,6/5/18-11/27/18,Yes,No,Yes,No,,,
2018,BronxWorks Farm Stand,Bronx,1130 Grand Concourse,204,40.832331,-73.91959,Thursday,2pm-6pm,4/19/18-11/15/18,No,No,No,No,,,
2018,Fordham Plaza Greenmarket ,Bronx,Park Ave bet E 189th St & E Fordham Rd,206,40.86153,-73.891063,Friday,8am-4pm,6/8/18-11/30/18; Closed 11/23/18 post Thanksgiving,Yes,No,Yes,No,,,
2018,Friends of Van Cortlandt Park Amalgamated Housing Youth Farmstand,Bronx,Orloff Ave & Gale Pl ,208,40.884532,-73.892172,Wednesday,2pm-7pm,7/11/18-10/31/18,Yes,No,No,No,,,
2018,Harvest Home Co-op City Farm Stand,Bronx,Asch Loop & Aldrich St,210,40.870249,-73.830963,Wednesday,8am-4pm,6/6/18-11/14/18,Yes,No,No,No,,,
2018,Harvest Home Hunts Point Farm Stand,Bronx,E 163rd St & Hunts Point Ave,202,40.820986,-73.891613,Wednesday,8am-4pm,6/6/18-11/21/18,Yes,No,No,No,,,
2018,Harvest Home Jacobi Hospital Farmers' Market,Bronx,"1400 Pelham Pkwy S, at Eastchester Rd",211,40.857427,-73.847079,"Tuesday
Friday",8am-4pm,6/5/18-11/20/18,Yes,No,No,No,,,
2018,Harvest Home Mt. Eden Farmers' Market,Bronx,Mt Eden & Morris Aves,204,40.842924,-73.909558,Tuesday and Thursday,8am-4pm,6/5/18-11/20/18,Yes,No,No,No,,,
2018,Harvest Home North Central Bronx Farmers' Market,Bronx,Mosholu Pkwy & Jerome Ave,207,40.879749,-73.884661,Wednesday,8am-4pm,6/6/18-11/21/18,Yes,No,No,No,,,
2018,Harvest Home St. Mary's Park Farm Stand,Bronx,E 149th St & Eagle Ave,201,40.813884,-73.911812,Thursday,8am-4pm,6/7/18-11/15/18,Yes,No,No,No,,,
2018,Kingsbridge-Riverdale Farmers' Market ,Bronx,260 W 231st St,208,40.880038,-73.907005,Sunday,9am-5pm; 9am-4pm after 11/4/18,5/20/18-11/25/18,No,No,No,No,,,
2018,La Familia Verde Farmers' Market,Bronx,E Tremont Ave bet LaFontaine & Arthur Aves,206,40.846487,-73.894337,Tuesday,8am-3pm,7/10/18-11/13/18,Yes,No,Yes,No,,,
2018,"Learn It, Grow It, Eat It Youthmarket",Bronx,"E 169th St & Boston Rd, at McKinley Square",203,40.83111025,-73.90070928,Wednesday,10am-3pm,7/11/18-11/21/18,Yes,No,No,No,,,
2018,Lincoln Hospital Greenmarket,Bronx,E 149th St bet Park & Morris Aves,201,40.818013,-73.925185,"Tuesday
Friday",8am - 3pm,6/29/18-11/20/18; Closed 11/6/18 (Election Day),Yes,No,No,No,,,
2018,New Roots Community Farmers Market,Bronx,670 Grand Concourse,204,40.821403,-73.925528,Tuesday,2pm-7pm,7/10/18-10/30/18,No,No,No,No,,,
2018,Norwood Youthmarket,Bronx,E Gun Hill Rd & Dekalb Ave,207,40.88222,-73.880458,Thursday,12pm-7pm,7/5/18-11/15/18,Yes,No,No,No,,,
2018,Parkchester Greenmarket,Bronx,Westchester Ave & White Plains Rd,209,40.8329,-73.862265,Friday,8am - 4pm,6/15/18-11/30/18; Closed 11/23/18,Yes,No,Yes,No,,,
2018,Poe Park Greenmarket,Bronx,E 192 St & Grand Concourse,207,40.864216,-73.895795,Tuesday,8am - 3pm,6/26/18-11/27/18,Yes,No,Yes,No,,,
2018,Riverdale Y Sunday Farmers' Market,Bronx,"Independence Ave bet W 236th & 237th Sts, at MS/HS 141",208,40.8871,-73.913306,Sunday,9am-2pm,5/6/18-11/18/18,No,No,No,No,,,
2018,South Bronx Farmers' Market,Bronx,E 138th St bet Willis & Alexander Aves,201,40.80915701,-73.92092102,"Wednesday
Saturday",10am-4pm,6/30/2018-11/21/2018,Yes,No,Yes,No,,,
2018,4th Ave Sunset Park Greenmarket ,Brooklyn,4th Ave bet 59th & 60th Sts ,307,40.641435,-74.017815,Saturday,8am - 3pm,7/7/18-11/17/18,Yes,No,Yes,No,,,
2018,6th Ave Sunset Park Greenmarket,Brooklyn,44th St & 6th Ave,307,40.647132,-74.004623,Saturday,8am-3pm,7/7/18-11/17/18,Yes,No,No,Yes,,,
2018,Bartel-Pritchard Square Greenmarket,Brooklyn,Prospect Park W & 15th St,306,40.661154,-73.980172,"Wednesday
Sunday ",8am - 3pm,Wednesday year round; Sunday 5/6/18-12/16/18,Yes,Yes,No,No,,,
2018,Bay Ridge Greenmarket,Brooklyn,95th St & 3rd Ave,310,40.617278,-74.033588,Saturday,8am - 3pm,5/5/18-11/17/18,Yes,No,No,No,,,
2018,Bensonhurst Greenmarket,Brooklyn,81st St & 18th Ave,311,40.609951,-73.999456,Sunday, 9am - 4pm,6/3/18-11/18/18,Yes,No,Yes,No,,,
2018,Borough Park Greenmarket,Brooklyn,14th Ave bet 49th & 50th Sts,312,40.633696,-73.989916,Thursday,8am - 3pm,7/5/18-11/15/18,Yes,No,No,No,,,
2018,Brooklyn Borough Hall Greenmarket,Brooklyn,Court & Montague Sts,302,40.693722,-73.990455,"Tuesday
Thursday
Saturday",8am - 5pm,"Year Round. Closed Thanksgiving (11/22/18), Christmas (12/25/18) and New Year's Day (1/1/19)",Yes,Yes,No,No,,,
2018,Brooklyn Museum Farm Stand,Brooklyn,200 Eastern Pkwy,305,40.671835,-73.963042,Thursday,1pm-6pm,6/14/18-10/4/18,Yes,No,No,No,,,
2018,Brownsville Pitkin Avenue Youthmarket,Brooklyn,Pitkin Ave & Thomas Boyland St,316,40.669264,-73.913554,Saturday ,9am-2pm,7/6/18-11/17/18,Yes,No,No,No,,,
2018,Carroll Gardens Greenmarket,Brooklyn,Carroll St bet Smith & Court Sts,306,40.68106,-73.996528,Sunday,8am - 2pm,Year Round. Closed 4/1 for Easter. ,Yes,Yes,No,No,,,
2018,Cortelyou Greenmarket,Brooklyn,Cortelyou & Rugby Rds,314,40.640825,-73.965301,Sunday,8am - 3pm (2pm in winter), Year Round,Yes,Yes,No,No,,,
2018,Cypress Hills Youthmarket,Brooklyn,Fulton & Richmond Sts,305,40.682391,-73.876616,Friday,10am-5pm,7/5/18-11/16/18,Yes,No,Yes,No,,,
2018,East New York Farm Stand,Brooklyn,New Lots Ave bet Alabama & Georgia Aves,305,40.660773,-73.8955,Wednesday,3:30pm-6:30pm,7/11/18-10/31/18,Yes,No,No,No,,,
2018,East New York Farmers' Market ,Brooklyn,Schenck Ave bet New Lots & Livonia Aves,305,40.66478,-73.886413,Saturday ,9am-3pm,6/27/18-11/24/18,Yes,No,Yes,No,,,
2018,Edible Schoolyard NYC's Farm Stand at PS 216,Brooklyn,E 1st St & Avenue X,315,40.590649,-73.969298,Friday,1:45pm-2:45pm,4/27/18-6/22/18; 9/7/18-11/16/18,Yes,No,No,No,,,
2018,Flatbush Junction Youthmarket,Brooklyn,Nostrand & Flatbush Aves,314,40.632886,-73.947698,Saturday,8:30am-2pm,7/6/18-11/17/18,Yes,No,No,No,,,
2018,Fort Greene Park Greenmarket,Brooklyn,Washington Park bet Dekalb Ave & Willoughby St,302,40.691707,-73.973539,Saturday,8am-3pm,Year Round,Yes,Yes,No,No,,,
2018,Graham Avenue Farmers' Market,Brooklyn,Cook St & Graham Ave,301,40.702345,-73.942381,Saturday,8am-5pm,7/14/18-10/27/18,Yes,No,Yes,No,,,
2018,Grand Army Plaza Greenmarket,Brooklyn,"Flatbush Ave. & Prospect Park W., at Prospect Park’s NW Entrance",355,40.663812,-73.962866,Saturday, 8am-4pm,Year Round,Yes,Yes,No,No,,,
2018,Harvest Home Brower Park Farm Stand,Brooklyn,Brooklyn Ave & Prospect Pl,308,40.674007,-73.944544,Thursday,8am-4pm,6/7/8-11/15/18,Yes,No,No,No,,,
2018,Harvest Home Clinton Hill Farm Stand,Brooklyn,Lafayette & Waverly Aves.,302,40.688088,-73.966819,Tuesday,8am-4pm,6/5/18-11/20/18,Yes,No,No,No,,,
2018,Harvest Home Coney Island Hospital Farmers' Market,Brooklyn,Ocean Pkwy bet Avenue Z & Shore Pkwy,313,40.58667,-73.96615,Wednesday Friday,8am-4pm,6/6/18-11/21/18,Yes,No,No,No,,,
2018,Harvest Home Kings County Hospital Farmers' Market,Brooklyn,Clarkson Ave bet E 37th & 38th Sts,317,40.655828,-73.943355,Wednesday,8am-4pm,6/5/18-11/21/18,Yes,No,No,No,,,
2018,Hattie Carthan After Church Farmers' Market,Brooklyn,49 Van Buren St,303,40.69040335,-73.94676914,Sunday,1pm-6pm,7/29/18-11/18/18,Yes,No,No,No,,,
2018,Hattie Carthan Community Farmers' Market,Brooklyn,Marcy Ave & Clifton Pl,303,40.689511,-73.948039,Saturday,9am-3pm,7/14/18-11/17/18,Yes,No,No,No,,,
2018,High School for Public Service Youth Farm Farmers' Market,Brooklyn,600 Kingston Ave ,309,40.65888574,-73.9424585,Wednesday,2:30pm-6:30pm,6/20/18-10/31/18,Yes,No,No,No,,,
2018,Irving Square Park Youthmarket ,Brooklyn,Wilson Ave & Halsey St,304,40.691504,-73.909551,Friday,12pm-6:30pm,7/5/18-11/16/18,Yes,No,No,No,,,
2018,Isabahlia Farm Stand,Brooklyn,514 Rockaway Ave,316,40.667156,-73.910092,Friday,11am-4pm,6/29/18-10/26/18,Yes,No,No,No,,,
2018,Isabahlia Farm Stand Winter Market ,Brooklyn,"93 New Lots Ave., inside greenhouse",316,40.657921,-73.901887,Saturday,8am-1pm,11/3/18-12/22/18,Yes,No,No,No,,,
2018,Isabahlia Farmers' Market,Brooklyn,410 Livonia Ave ,316,40.663518,,Saturday,8am-3pm,6/30/18-10/27/18,Yes,No,No,No,,,
2018,Kensington Youthmarket,Brooklyn,Ft Hamilton Pkwy bet E 4th & 5th Sts,307,40.648813,-73.977488,Saturday,8am-3pm,7/6/18-11/17/18,Yes,No,No,No,,,
2018,Marcus Garvey Apartments Farm Stand,Brooklyn,300 Chester St,316,40.66446999,-73.91038415,Tuesday Saturday,11am-5pm,6/19/18-10/5/18,Yes,No,No,No,,,
2018,McCarren Park Greenmarket,Brooklyn,Union Ave bet Driggs and N 12th Sts,301,40.719219,-73.952479,Saturday,8am - 3pm,Year Round,Yes,Yes,No,No,,,
2018,McGolrick Park's Down to Earth Farmers' Market,Brooklyn,"Russell St & Nassau Ave., center of park",301,40.725617,-73.944497,Sunday,10am-4pm (winter closes at 3pm),Year Round,Yes,Yes,No,No,,,
2018,NYC Health + Hospital East New York Farmacy,Brooklyn,2094 Pitkin Ave,305,40.671977,-73.895248,"Monday
Wednesday",11am-4pm,6/15/18-10/5/18,Yes,No,No,No,,,
2018,Park Slope's Down to Earth Farmers' Market,Brooklyn,4th St & 5th Ave,406,40.672194,-73.983785,"
Sunday ","
10am-5pm (winter closes at 4)",Year Round,Yes,Yes,No,No,,,
2018,Pitkin Verde Farmers' Market,Brooklyn,2094 Pitkin Ave,305,40.67196961,-73.8952477,Tuesday,9am-5:30pm,7/3/18-11/20/18,Yes,No,No,No,,,
2018,Project EATS Farmacy at the Brownsville Neighborhood Health Action Center,Brooklyn,259 Bristol St,316,40.664827,-73.911415,"Tuesday
Thursday",11am-4pm,6/15/18-10/5/18,Yes,No,No,No,,,
2018,Project EATS Rockaway Farmstand,Brooklyn,666 Rockaway Ave,316,40.663526,-73.909163,Friday,11am-4pm,7/6/18-11/16/18,Yes,No,No,No,,,
2018,RB Bushwick Farmers' Market at Maria Hernandez Park ,Brooklyn,Knickerbocker Ave & Starr St,304,40.702811,-73.92539,Saturday ,9am-3pm,5/19/18-12/15/18,Yes,No,Yes,No,,,
2018,RB Rheingold Archway Farmers' Market,Brooklyn,553 Bushwick Ave,304,40.699408,-73.935672,Sunday,10am-4pm,5/20/18-12/16/18,Yes,No,Yes,No,,,
2018,Red Hook Farm Stand,Brooklyn,560 Columbia St,306,40.672524,-74.00871,Saturday,10am-3pm,6/16/18-11/17/18,Yes,No,No,No,,,
2018,Red Hook Farm Stand II,Brooklyn,West 9th St & Hamilton Avenue,306,40.676024,-74.002318,Wednesday,4pm-8pm,8/1/18-11/14/18,Yes,No,Yes,No,,,
2018,Saratoga Farm Stand,Brooklyn,2046-2050 Fulton St,303,40.678543,-73.915816,Saturday,9am-3pm,7/7/18-11/17/18,No ,No,Yes,No,,,
2018,South Williamsburg Greenmarket,Brooklyn,Taylor St & Lee Ave,301,40.706998,-73.961364,Thursday,8am - 4pm,7/5/18-11/15/18,Yes,No,Yes,No,,,
2018,Woodhull Hospital Youthmarket,Brooklyn,Marcus Garvey Blvd & Broadway,303,40.700281,-73.94115,Wednesday,9am-3pm,7/11/18-11/21/18,Yes,No,No,No,,,
2018,Wyckoff House Museum Farm Stand,Brooklyn,5816 Clarendon Rd,317,40.64497,-73.920914,Saturday,11am-3pm,6/16/18-11/6/18,No,No,No,No,,,
2018,175th Street Greenmarket,Manhattan,W 175th St bet Wadsworth Ave & Broadway,112,40.845948,-73.937811,Thursday ,8am - 5pm,6/28/18-11/29/18; Closed Thanksgiving 11/22/18,Yes,No,Yes,No,,,
2018,57th Street Greenmarket,Manhattan,W 57th St & 10th Ave,104,40.769117,-73.988559,"Wednesday
Saturday ",8am-5pm,6/2/18-11/21/18; closed 7/4/18,Yes,No,No,No,,,
2018,79th Street Greenmarket,Manhattan,Columbus Ave bet W 78th & 81st Sts,107,40.781274,-73.975995,Sunday,9am - 5pm,Year Round,Yes,Yes,No,No,,,
2018,82nd Street Greenmarket,Manhattan,E 82nd St bet 1st & York Aves ,108,40.774292,-73.951262,Saturday,9am - 2:30pm,Year Round,Yes,Yes,No,No,,,
2018,92nd Street Greenmarket,Manhattan,E 92nd St & 1st Ave,108,40.780691,-73.946592,Sunday ,9am-4pm,6/24/18-11/18/18; closed 11/4/18 for marathon,Yes,No,No,No,,,
2018,97th Street Greenmarket,Manhattan,W 97th St bet Columbus & Amsterdam Aves,107,40.793558,-73.967016,Friday ,8am - 2pm,Year Round; 11/23/18 rescheduled to Wednesday 11/21/18 post Thanksgiving ,Yes,Yes,Yes,No,,,
2018,Abingdon Square Greenmarket,Manhattan,Hudson St & W 12th St,102,40.737553,-74.005687,Saturday,8am - 2pm,Year Round,Yes,Yes,No,No,,,
2018,Bowling Green Greenmarket,Manhattan,Broadway & Battery Pl,101,40.704549,-74.01429,"Tuesday
Thursday", 8am - 5pm,Year Round. 11/22/18 rescheduled to Wednesday 11/21/18 (Thanksgiving); Closed Christmas (12/25/18) and Closed New Year's Day (1/1/18),Yes,Yes,No,No,,,
2018,Chelsea's Down to Earth Farmers' Market,Manhattan,W 23rd St bet 8th & 9th Aves,104,40.745293,-73.998488,Saturday,9am-4pm,5/6/18-12/16/18,Yes,No,No,No,,,
2018,Chenchita's Community Garden & Pa lante Garden ,Manhattan,E 110th St & Madison Ave,111,40.79745,-73.946702,Saturday,9am-2pm,,Yes,No,No,No,,,
2018,City Hall Greenmarket,Manhattan,Broadway & Chambers St,101,40.714165,-74.006309,"Tuesday
Friday", 8am - 4pm,Year Round - Tuesday; 11/23/18 rescheduled to Wednesday 11/21/18; Closed Christmas (12/25/18) and New Year's Day (1/1/19),Yes,Yes,No,No,,,
2018,Columbia University Greenmarket,Manhattan,Broadway & W 114th St,109,40.806707,-73.964849,"Thursday
Sunday", 8am-5pm,Year Round. 11/22/18 rescheduled to Tuesday 11/20/18,Yes,Yes,No,No,,,
2018,Dag Hammarskjold Plaza Greenmarket,Manhattan,E 47th St & 2nd Ave,106,40.752999,-73.969887,Wednesday,8am-4pm,Year Round. Closed 7/4/18 and 9/26/18 (Gen. Assembly),Yes,Yes,No,No,,,
2018,Fort Washington Greenmarket,Manhattan,W 168th St & Ft Washington Ave,112,40.842154,-73.942278,Tuesday,8am - 4pm,6/5/18-11/27/18,Yes,No,No,No,,,
2018,Frederick Douglass House Farm Stand,Manhattan,W 101st St & Columbus Ave,107,40.795457,-73.965628,Saturday,9am-3pm,6/16/18-10/5/18,Yes,No,No,No,,,
2018,Gouverneur Health Youthmarket,Manhattan,Madison St bet Clinton & Jefferson Sts,103,40.712905,-73.986928,Thursday,8:30am-2pm,7/5/18-11/15/18,Yes,No,No,No,,,
2018,Grass Roots Farmers' Market,Manhattan,"W 145th St bet Edgecombe & Bradhurst Aves, at Jackie Robinson Park",110,40.82326,-73.943844,"Tuesday
Saturday",9am-4pm,7/10/18-11/28/18,Yes,No,Yes,No,,,
2018,Greenmarket at Oculus Plaza,Manhattan,"Church & Fulton Sts., on Oculus Plaza",101,40.711535,-74.010464,Tuesday,7am-7pm,6/5/18-10/30/18,Yes,No,No,No,,,
2018,Hamilton Heights Green Youthmarket,Manhattan,"Amsterdam bet W 143rd & 144th Sts., at Johnny Hartman Plaza",109,40.82394,-73.948552,Wednesday,10:30am-5pm,6/20/2018-11/22/18,No,No,No,No,,,
2018,Harvest Home 125th Street Market,Manhattan,W 125th St & Adam Clayton Powell Jr Blvd,110,40.808973,-73.948325,Tuesday,8am-6pm,6/5/18-11/20/18,Yes,No,No,No,,,
2018,Harvest Home East Harlem Farmers' Market,Manhattan,104th St & 3rd Ave,111,40.790253,-73.945635,Thursday,8am-4pm,7/7/18-11/15/18,Yes,No,No,No,,,
2018,Harvest Home East River Farm Stand,Manhattan,1st Ave bet 108th & 109th Sts,111,40.790906,-73.93913,Saturday,8am-4pm,7/9/18-11/17/18,Yes,No,No,No,,,
2018,Harvest Home Harlem Hospital Farmers' Market,Manhattan,Lenox Ave bet 135th & 137th Sts,110,40.814358,-73.940659,Friday,8am-5pm,Year Round,Yes,Yes,No,No,,,
2018,Harvest Home Lenox Ave Farm Stand,Manhattan,Lenox Ave bet W 117th & 118th Sts,110,40.802699,-73.949186,Saturday,8am-4pm,6/9/18-11/17/18,Yes,No,No,No,,,
2018,Harvest Home Metropolitan Farmers' Market,Manhattan,E 99th St & 3rd Ave,111,40.78712,-73.947923,Friday,8am-4pm,6/8/18-11/15/18,Yes,No,No,No,,,
2018,Harvest Home West Harlem Farmers' Market,Manhattan,W 139th St & Broadway,109,40.822644,-73.953218,Tuesday,8am-4pm,6/5/18-11/20/18,Yes,No,No,No,,,
2018,Hudson Yards Down to Earth Farmers' Market,Manhattan,W 34th St & Hudson Blvd East ,104,40.755158,-74.000502,Thursday,10am-6pm,5/10/2018-11/18/2018,Yes,No,No,No,,,
2018,Inwood Park Greenmarket,Manhattan,Isham St bet Seaman Ave & Cooper St,112,40.869001,-73.920896,Saturday,8am - 3pm,Year Round,Yes,Yes,No,No,,,
2018,Lower East Side Youthmarket,Manhattan,Grand Ave bet Pitt & Willet Sts ,103,40.714932,-73.983338,Thursday,8am-3pm,7/5/18-11/15/18,Yes,No,No,No,,,
2018,Morningside Park's Down to Earth Farmers' Market,Manhattan,W 110th St & Manhattan Ave,107,40.801155,-73.959647,Saturday ,9am-4pm (winter closes at 3pm),Year Round,Yes,Yes,No,No,,,
2018,Mount Sinai Hospital Greenmarket,Manhattan,E 99th St bet Madison & Park Aves,111,40.789169,-73.952743,Wednesday, 8am-5pm,6/20/18-11/28/18; Closed 7/4/18 ,Yes,No,No,No,,,
2018,Project Harmony People's Market,Manhattan,"219 W. 122nd St., at Joseph Daniel Wilson Memorial Garden",110,40.807407,-73.950588,Thursday,10am-7pm,6/14/18-10/25/18,Yes,No,Yes,No,,,
2018,PS 11 Farm Market,Manhattan,W 21st St bet 8th & 9th Aves,104,40.744006,-73.999415,Wednesday,8am-10am,6/13/18-11/14/18,No,No,No,No,,,
2018,PS 57 Youthmarket,Manhattan,E 115th St & 3rd Ave ,111,40.797261,-73.940519,Wednesday,9am-4pm,7/11/18-11/21/18,Yes,No,No,No,,,
2018,PS 7 Farm Stand,Manhattan,"Lexington Ave & E 119th St, in schoolyard",111,40.80099986,-73.9393481,Wednesday,2:15pm-4pm,4/18/18-6/20/18; 9/12/18-11/14/18,Yes,No,No,No,,,
2018,Rockefeller Center Greenmarket,Manhattan,Rockefeller Plaza bet W 49th & 50th Sts (Jul-Aug only),105,40.759065,-73.97845,"Wednesday
Thursday
Friday ",8am - 5pm ,7/25/18-8/31/18,Yes,No,No,No,,,
2018,Staten Island Ferry Whitehall Terminal Greenmarket,Manhattan,"4 South St, inside terminal",101,40.7016879,-74.01163113,"Tuesday
Friday ",8am - 7pm,"Year-round. Closed 11/23/18 (post Thanksgiving), Christmas (12/25/18) and New Year's Day (1/1/19)",Yes,Yes,No,No,,,
2018,Stuyvesant Town Greenmarket,Manhattan,"E. 14th. St. Loop & Avenue A, in the Oval",103,40.730443,-73.980339,Sunday,9:30am - 4pm,5/20/18-11/18/18,Yes,No,No,No,,,
2018,The Community Farmers Market at Adam Clayton Powell Jr. Blvd,Manhattan,Adam Clayton Powell Jr Blvd bet 110th St & 111th St,110,40.799441,-73.955303,Saturday,10am - 4pm,closing 10/16,Yes,No,No,No,,,
2018,Tompkins Square Greenmarket,Manhattan,E. 7th St. & Avenue A,103,40.726054,-73.983534,Sunday,9am - 6pm,Year Round,Yes,Yes,No,No,,,
2018,Tribeca Greenmarket,Manhattan,Greenwich & Chambers Sts,101,40.716303,-74.010966,"Wednesday 
Saturday ",8am-3pm,Wednesday: 6/6/18-closing in July do not include on map; Saturday Year Round; Closed 7/4/18,Yes,No,No,No,,,
2018,Tucker Square Greenmarket,Manhattan,W 66th St & Broadway,107,40.773876,-73.982226,"Thursday
Saturday ",8am - 5pm,Year Round; 11/22/18 reschedule to Wednesday 11/21/18,Yes,Yes,No,No,,,
2018,Union Square Greenmarket,Manhattan,E 17th St & Union Square W,105,40.737133,-73.990329,"Monday
Wednesday
Friday
Saturday",8am - 6pm,Year Round. 11/23/18 rescheduled to Tuesday 11/20/18,Yes,Yes,No,No,,,
2018,Water Street Greenmarket,Manhattan,Water St & Coenties Slip,101,40.703268,-74.010347,Thursday,8am - 6pm,6/7/18-12/20/18; 11/22 Rescheduled to Wednesday 11/21/18,Yes,No,No,No,,,
2018,164th St Farmers Market at NYC Health + Hospitals/Queens,Queens,82-68 164th St.,408,40.71725,-73.803433,Thursday,8am-4pm,6/21/18-11/29/18,No,No,No,No,,,
2018,Astoria Greenmarket,Queens,14th St bet 31st Ave & 31st Rd,401,40.767715,-73.932462,Wednesday,8am - 3pm,7/1/18-10/31/18,Yes,No,No,No,,,
2018,Corona Greenmarket,Queens,Roosevelt Ave & 104th St,404,40.749811,-73.861668,Friday,8am - 3pm,7/6/18-11/16/18,Yes,No,Yes,No,,,
2018,Cunningham Park's Down to Earth Farmers' Market,Queens,Union Tpk & 196 Pl,408,40.731082,-73.773997,Sunday,9am-2pm,5/6/18-11/18/18,Yes,No,No,No,,,
2018,Ditmars Park Youthmarket,Queens,"Steinway St bet Ditmars Blvd & 23rd Ave., at Ditmars Park",401,40.772854,-73.906061,Saturday,9am-3pm,7/6/18-11/17/18,Yes,No,No,No,,,
2018,Elmhurst Hospital Greenmarket,Queens,41st Ave bet 80th & 81st Sts,404,40.745794,-73.885489,Tuesday,8am - 4pm,6/5/18-11/27/18; Closed Election Day (11/6/18),Yes,No,No,No,,,
2018,Far Rockaway Farmstand ,Queens,385 Beach 45th St,431,40.595612,-73.776551,Saturday,10am-2pm,7/7/18-11/17/18,No ,No,No,No,,,
2018,Flushing Greenmarket,Queens,"Kissena Blvd. & Maple Ave., at Maple Playground",407,40.756357,-73.825773,Wednesday,8am - 4pm,7/11/18-11/28/18,Yes,No,Yes,No,,,
2018,Forest Hills Greenmarket,Queens,70th Ave & Queens Blvd,406,40.72188,-73.846383,Sunday,8am - 2pm,Year Round,Yes,Yes,No,No,,,
2018,Forest Park Youthmarket,Queens,Myrtle Ave & Park Lane South,409,40.700955,-73.841426,Saturday,10am-4pm,9/8/18-11/17/18,Yes,No,No,No,,,
2018,Guy R Brewer Boulevard Farmers Market at NYC Health + Hospitals/Queens,Queens,114-02 Guy R Brewer Blvd,412,40.688615,-73.785593,Thursday,8am-4pm,6/21/18-11/29/19,No,No,No,No,,,
2018,Jackson Heights Greenmarket,Queens,34th Ave bet 79th & 80th Sts,403,40.753435,-73.887822,Sunday,8am - 2pm,Year Round,Yes,Yes,Yes,No,,,
2018,Jamaica Hospital Farmers' Market,Queens,"Jamaica Ave & Van Wyck Expwy, South Service Rd",409,40.702445,-73.816861,Wednesday,10am-4pm,6/27/18-11/21/18,Yes,No,No,No,,,
2018,Jamaica's Down to Earth Farmers' Market - Friday market,Queens,Parsons Blvd bet Jamaica & Archer Aves,412,40.703342,-73.799921,Friday,8am-4pm,6/15/18-11/16/18,Yes,No,Yes,No,,,
2018,Jamaica's Down to Earth Farmers' Market- Saturday market,Queens,160th St & Jamaica Ave,412,40.703752,-73.799149,Saturday,8am-4pm,6/16/18-11/17/18,Yes,No,No,No,,,
2018,Joseph Addabbo FHC Farm Stand,Queens,6200 Beach Channel Dr,414,40.593313,-73.79166,Saturday,8am-2pm,7/7/18-11/17/18,No,No,No,No,,,
2018,Long Island City Youthmarket,Queens,Center Blvd & 46th Rd,402,40.746916,-73.956367,Saturday,8am-2pm,7/7/18-11/17/18,Yes,No,No,No,,,
2018,Pomonok Community-Run Farmers' Market,Queens,67-09 Kissena Blvd,408,40.73502504,-73.81472491,Wednesday,9am-5pm,7/11/18-11/21/18,Yes,No,No,No,,,
2018,Queens Botanical Garden's Down to Earth Farmers' Market,Queens,82 Dahlia Ave,407,40.75186,-73.826362,Friday,8:30am-4pm,6/15/18-11/16/18,Yes,No,No,No,,,
2018,Queens County Farm Museum Farmstand,Queens,73-50 Little Neck Pkwy,413,40.748163,-73.719431,"Wednesday, Thursday, Friday; Saturday and Sunday",11am-3pm; 11am-5pm,5/16/18-11/4/18,Yes,No,No,No,,,
2018,Ridgewood Youthmarket,Queens,Cypress Ave bet Myrtle & Putnam Aves,405,40.700123,-73.90621,Saturday,8am-3pm,7/6/18-11/17/18,Yes,No,No,No,,,
2018,Rockaway Youth Task Force Youth Market,Queens,310 Beach 58th St,414,40.594492,-73.788077,Saturday,8am-3pm,6/2/18-11/24/18,No,No,No,No,,,
2018,Sunnyside Greenmarket,Queens,Skillman Ave bet 42nd & 43rd Sts,402,40.746999,-73.921724,Saturday,8am - 2pm,Year round,Yes,Yes,No,No,,,
2018,HEALTH for Youths Farm Stand ,Staten Island,Clyde Pl. bet. Prospect & Harvard Aves.,501,40.6399,-74.090293,Sunday,11:30am-2pm,5/6/18-11/25/18,No,No,No,No,,,
2018,St. George Greenmarket,Staten Island,Hyatt St & St Marks Pl,501,40.641586,-74.0779,Saturday,8am - 2pm,Year Round,Yes,Yes,No,No,,,
2018,Staten Island Mall Greenmarket,Staten Island,Marsh Ave & Ring Rd,502,40.583804,-74.161245,Saturday,8am - 3pm,5/5/18-12/22/18,Yes,No,No,No,,,
2019,170 Farm Stand,Bronx,E 170th St & Townsend Ave,204,40.839882,-73.916783,Wednesday,2:30pm-6:30pm,07/10/2019-11/27/2019,Yes,No,No,Yes,,,
2019,Bissel Gardens Farmers Market,Bronx,Baychester Ave & E 241st St ,212,40.90152,-73.846937,"Wednesday 
Saturday",9am-5pm,07/06/2019-11/27/2019,No,No,No,No,,,
2019,Bronx Borough Hall Greenmarket,Bronx,Grand Concourse bet E 161st & 162nd Sts,204,40.826835,-73.922621,Tuesday, 8am-4pm,06/04/19-11/26/19,Yes,No,Yes,No,,,
2019,BronxWorks Farm Stand,Bronx,1130 Grand Concourse,204,40.832331,-73.91959,Thursday,10am-4pm,07/11/2019-11/21/2019,Yes,No,No,No,,,
2019,Bronx Family Center Go!Healthy Farm Stand,Bronx,1515 Southern Blvd,203,40.833734,-73.889934,Thursday,9:30am-3:30pm,07/08/2019-11/22/2019,Yes,No,No,Yes,,,
2019,CS211 Go!Healthy Farm Stand,Bronx,1919 Prospect Ave,206,40.843546,-73.889755,Wednesday,2:30pm-5:30pm,07/08/2019- 11/22/2019,Yes,No,No,No,,,
2019,Fordham Plaza Greenmarket ,Bronx,Park Ave bet E 189th St & E Fordham Rd,206,40.86153,-73.891063,Friday,8am-4pm,06/14/19-11/22/19,Yes,No,Yes,No,,,
2019,Van Cortlandt Park Alliance Amalgamated Housing Youth Farmstand,Bronx,Orloff Ave & Gale Pl ,208,40.884532,-73.892172,Wednesday,2pm-7pm,07/10/2019-08/21/2019,Yes,No,No,No,,,
2019,Harvest Home Co-op City Farm Stand,Bronx,Asch Loop & Aldrich St,210,40.870249,-73.830963,Wednesday,8am-4pm,06/05/2019-11/20/2019,Yes,No,No,No,,,
2019,Harvest Home Hunts Point Farm Stand,Bronx,E 163rd St & Hunts Point Ave,202,40.820986,-73.891613,Wednesday,8am-4pm,06/05/2019-11/20/2019,Yes,No,No,No,,,
2019,Harvest Home Jacobi Hospital Farmers' Market,Bronx,"1400 Pelham Pkwy S, at Eastchester Rd",211,40.857427,-73.847079,"Tuesday 
Friday",8am-4pm,06/11/2019-11/19/2019,Yes,No,No,No,,,
2019,Harvest Home Mt. Eden Farmers' Market,Bronx,Mt Eden & Morris Aves,204,40.842924,-73.909558,"Tuesday
Thursday",8am-4pm,06/11/2019-11/19/2019,Yes,No,No,No,,,
2019,Harvest Home North Central Bronx Farmers' Market,Bronx,Mosholu Pkwy & Jerome Ave,207,40.879749,-73.884661,Wednesday,8am-4pm,06/19/2019-11/19/2019,Yes,No,No,No,,,
2019,Harvest Home St. Mary's Park Farm Stand,Bronx,E 149th St & Eagle Ave,201,40.813884,-73.911812,Thursday,8am-4pm,07/11/2019-11/14/2019,Yes,No,No,No,,,
2019,Kingsbridge-Riverdale Farmers' Market ,Bronx,260 W 231st St,208,40.880038,-73.907005,Sunday,9am-5pm,05/26/19-11/24/19,Yes,No,No,No,,,
2019,La Familia Verde Farmers' Market,Bronx,E Tremont Ave bet LaFontaine & Arthur Aves,206,40.846487,-73.894337,Tuesday,8am-3pm,07/09/2019-11/12/2019,Yes,No,Yes,No,,,
2019,"Learn It, Grow It, Eat It Youthmarket",Bronx,"E 169th St & Boston Rd, at McKinley Square",203,40.831117,-73.90071,Wednesday,10am-3pm,07/10/2019-11/27/2019,Yes,No,No,No,,,
2019,Lincoln Hospital Greenmarket,Bronx,E 149th St bet Park & Morris Aves,201,40.818013,-73.925185,"Tuesday 
Friday",8am - 3pm,"Year-round
Friday: 06/28/19-11/22/19",Yes,Yes,No,No,,,
2019,Mott Haven Farmers Market,Bronx,545 E 142nd St,201,40.809973,-73.916434,Monday,9am-3pm,07/08/2019-11/18/2019,Yes,No,No,No,,,
2019,Morning Glory Market at the New York Botanical Gardens,Bronx,2900 Southern Blvd.,227,40.865684,-73.883312,Wednesday,9am-3pm,06/12/2019-10/31/2019,Yes,No,No,No,,,
2019,New Roots Community Farmers Market,Bronx,670 Grand Concourse (153rd & Grand Concourse),204,40.821403,-73.925528,Tuesday,3pm-7pm,07/09/2019-10/29/2019,No,No,No,No,,,
2019,Norwood Youthmarket,Bronx,E Gun Hill Rd & Dekalb Ave,207,40.88222,-73.880458,Thursday,10am-5pm,Year-Round,Yes,Yes,No,No,,,
2019,Parkchester Greenmarket,Bronx,Westchester Ave & White Plains Rd,209,40.833992,-73.862148,Friday,8am - 4pm,06/14/19-11/27/19 (11/29 rescheduled to 11/27) ,Yes,No,Yes,No,,,
2019,Poe Park Greenmarket,Bronx,E 192 St & Grand Concourse,207,40.864216,-73.895795,Tuesday,8am - 3pm,06/25/19-11/26/19,Yes,No,Yes,No,,,
2019,Riverdale Y Sunday Farmers Market,Bronx,"Independence Ave bet W 236th & 237th Sts, at MS/HS 141",208,40.8871,-73.913306,Sunday,9am-2pm,05/05/2019-11/24/2019,No,No,No,No,,,
2019,South Bronx Farmers Market,Bronx,E 138th St bet Willis & Alexander Aves,201,40.809107,-73.922887,"
Saturday",10am-4pm,06/15/2019-11/23/2019,Yes,No,Yes,No,,,
2019,St. Barnabas Hospital Farm Stand,Bronx,4422 3rd Ave,206,40.853237,-73.891742,Wednesday,10:30am-4:30pm,7/10/2019-11/13/2019,Yes,No,No,No,,,
2019,4th Ave Sunset Park Greenmarket,Brooklyn,4th Ave bet 59th & 60th Sts ,307,40.641435,-74.017815,Saturday,8am - 3pm,07/06/19-11/23/19,Yes,No,Yes,No,,,
2019,6th Ave Sunset Park Greenmarket,Brooklyn,44th St & 6th Ave,307,40.647132,-74.004623,Saturday,8am-3pm,Year-round,Yes,Yes,No,No,,,
2019,Bartel-Pritchard Square Greenmarket,Brooklyn,Prospect Park W & 15th St,306,40.661154,-73.980172,"Wednesday 
Sunday ",W: 8am - 3pm; S: 9am-3pm,"Wednesday: Year-Round (Closed 12/25/19 & 1/1/20); 
Sunday: 05/05/19-12/22/19",Yes,Yes,No,No,,,
2019,Bay Ridge Greenmarket,Brooklyn,95th St & 3rd Ave,310,40.617278,-74.033588,Saturday,8am - 3pm,05/04/19-11/23/19,Yes,No,No,No,,,
2019,Bensonhurst Greenmarket,Brooklyn,81st St & 18th Ave,311,40.609951,-73.999456,Sunday, 9am - 4pm,06/02/19-11/24/19,Yes,No,No,No,,,
2019,Borough Park Greenmarket,Brooklyn,14th Ave bet 49th & 50th Sts,312,40.633696,-73.989916,Thursday,8am - 3pm,07/11/19-11/21/19,Yes,No,No,No,,,
2019,Broadway Junction Youthmarket,Brooklyn,Fulton St and Van Sinderen Ave,305,40.682391,-73.876616,Friday,9am-6pm,07/12/19-11/22/19,Yes,No,No,No,,,
2019,Brooklyn Borough Hall Greenmarket,Brooklyn,Court & Montague Sts,302,40.693722,-73.990455,"Tuesday 
Thursday
Saturday",8am - 5pm,Year-Round (Closed 07/04/19 & 11/28/19),Yes,Yes,No,No,,,
2019,Brownsville Health Action Center,Brooklyn,259 Bristol Street,316,40.6647,-73.911101,Tuesday & Thursday,10:30am-4:30pm,7/9/2019-11/14/2019,Yes,No,No,No,,,
2019,Brownsville/ENY - Health & Hospitals East New York,Brooklyn,2094 Pitkin Ave,305,40.6647,-73.911101,Monday & Wednesday,10:30am-4:30pm,7/8/2019-11/13/2019,Yes,No,No,No,,,
2019,Brownsville Pitkin Youthmarket,Brooklyn,Pitkin Ave & Thomas Boyland St,316,40.669264,-73.913554,Saturday ,9am-2pm,07/13/2019-11/23/2019,Yes,No,No,No,,,
2019,Carroll Gardens Greenmarket,Brooklyn,Carroll St bet Smith & Court Sts,306,40.68106,-73.996528,Sunday,8am - 2pm,Year-Round (Closed 04/21/19),Yes,Yes,No,No,,,
2019,Cortelyou Greenmarket,Brooklyn,Cortelyou & Rugby Rds,314,40.640825,-73.965301,Sunday,8am - 3pm,Year-Round,Yes,Yes,No,No,,,
2019,Cypress Hills Youthmarket,Brooklyn,Fulton & Richmond Sts,305,40.682391,-73.876616,Friday,10am-5pm,07/12/2019-11/22/2019,Yes,No,Yes,No,,,
2019,East New York Farm Stand,Brooklyn,New Lots Ave bet Alabama & Georgia Aves,305,40.660828,-73.895395,Wednesday,1:30pm-6:30pm,6/29/2019-11/23/2019,Yes,No,No,No,,,
2019,East New York Farmers' Market ,Brooklyn,Schenck Ave bet New Lots & Livonia Aves,305,40.665296,-73.886557,Saturday ,9am-3pm,07/05/2019-11/23/2019,Yes,No,Yes,No,,,
2019,Edible Schoolyard NYC's Farm Stand at PS 216,Brooklyn,E 1st St & Avenue X,315,40.590649,-73.969298,Friday,1:45pm-2:45pm,05/03/2019-06/28/2019; 09/06/2019-11/22/2019,Yes,No,No,No,,,
2019,Flatbush Junction Youthmarket,Brooklyn,Nostrand & Flatbush Aves,314,40.632886,-73.947698,Saturday,8:30am-2pm,07/13/2019-11/23/2019,Yes,No,No,No,,,
2019,Fort Greene Park Greenmarket,Brooklyn,Washington Park bet Dekalb Ave & Willoughby St,302,40.691707,-73.973539,Saturday,8am-3pm,Year-round,Yes,Yes,No,No,,,
2019,Fresh Vibes Mobile Market,Brooklyn,2010 Fulton Street,303,40.678635,-73.917536,,,,No,,No,No,,,
2019,Graham Avenue Farmers' Market,Brooklyn,Cook St & Graham Ave,301,40.702345,-73.942381,Saturday,8am-5pm,07/06/2019-10/26/2019,Yes,No,Yes,No,,,
2019,Grand Army Plaza Greenmarket,Brooklyn,"Flatbush Ave. & Prospect Park W., at Prospect Park’s NW Entrance",355,40.663812,-73.962866,Saturday, 8am-4pm,Year-Round,Yes,Yes,No,No,,,
2019,Harvest Home Brower Park Farm Stand,Brooklyn,Brooklyn Ave & Prospect Pl,308,40.674007,-73.944544,Thursday,8am-4pm,06/06/2019-11/14/2019,Yes,No,No,No,,,
2019,Harvest Home Clinton Hill Farm Stand,Brooklyn,Lafayette & Waverly Aves.,302,40.688088,-73.966819,Tuesday,8am-4pm,06/04/2019-11/19/2019,Yes,No,No,No,,,
2019,Harvest Home Coney Island Hospital Farmers' Market,Brooklyn,Ocean Pkwy bet Avenue Z & Shore Pkwy,313,40.58667,-73.96615,"Wednesday 
Friday",8am-4pm,06/05/2019-11/20/2019,Yes,No,No,No,,,
2019,Harvest Home Kings County Hospital Farmers' Market,Brooklyn,Clarkson Ave bet E 37th & 38th Sts,317,40.655828,-73.943355,Wednesday,8am-4pm,06/05/2019-11/20/2019,Yes,No,No,No,,,
2019,Hattie Carthan After Church Farmers' Market,Brooklyn,49 Van Buren St,303,40.690036,-73.943557,Sunday,1pm-6pm,08/04/2019-11/17/2019,Yes,No,No,No,,,
2019,Hattie Carthan Community Farmers' Market,Brooklyn,Marcy Ave & Clifton Pl,303,40.689511,-73.948039,Saturday,9am-3pm,07/13/2019-11/16/2019,Yes,No,No,No,,,
2019,High School for Public Service Youth Farm Farmers' Market,Brooklyn,600 Kingston Ave ,309,40.658893,-73.942458,"Wednesday
Saturday",(W) 2:30pm-6:30pm; (S) 12pm-4pm,(W): 06/19/2019-10/30/2019; (S): 07/13/2019-08/03/2019,Yes,No,No,No,,,
2019,Isabahlia Farm Stand,Brooklyn,514 Rockaway Ave,316,40.667554,-73.910207,Friday & Saturday,"(F) 9am - 4pm
(S) 9am-3pm",06/28/2019-10/25/2019 ; 06/29/2019-10/26/2019,Yes,No,No,No,,,
2019,Isabahlia Farm Stand Winter Market ,Brooklyn,"93 New Lots Ave., inside greenhouse",316,40.657984,-73.901764,Saturday,8am-1pm,11/02/2019-12/14/2019,Yes,No,No,No,,,
2019,Isabahlia Farmers' Market,Brooklyn,410 Livonia Ave ,316,40.663532,-73.902236,Saturday,8am-3pm,06/29/2019-10/26/2019,Yes,No,No,No,,,
2019,Kensington Youthmarket,Brooklyn,McDonald Ave & Albemarle Rd,312,40.64511,-73.979882,Saturday,8am-3pm,07/13/2019-11/23/2019,Yes,No,No,No,,,
2019,Marcus Garvey Apartments Farm Stand,Brooklyn,300 Chester St,316,40.664477,-73.910384,"
Saturday",10:30am-4:30pm,6/22/2019-11/16/2019,Yes,No,No,No,,,
2019,McCarren Park Greenmarket,Brooklyn,Union Ave bet Driggs and N 12th Sts,301,40.719219,-73.952479,Saturday,8am - 2pm,Year-Round,Yes,Yes,No,No,,,
2019,McGolrick Park's Down to Earth Farmers' Market,Brooklyn,"Russell St & Nassau Ave., center of park",301,40.725617,-73.944497,Sunday,10am-4pm,5/12/19-12/31/2019,Yes,No,No,No,,,
2019,Park Slope's Down to Earth Farmers' Market,Brooklyn,4th St & 5th Ave,306,40.672194,-73.983785,"
Sunday ",10am-5pm (winter closes at 4pm),Year-Round (summer hours being 05/05/19-11/24/19) ,Yes,Yes,No,No,,,
2019,Project EATS Rockaway Farmstand,Brooklyn,666 Rockaway Ave,316,40.663526,-73.909163,Friday,10:30am-4:30pm,6/21/2019-11/15/2019,Yes,No,No,No,,,
2019,RB Bushwick Farmers' Market at Maria Hernandez Park ,Brooklyn,Knickerbocker Ave & Starr St,304,40.702811,-73.92539,Saturday ,9am-4pm,05/18/2019-11/30/2019,Yes,No,Yes,No,,,
2019,RB Rheingold Archway Farmers' Market,Brooklyn,553 Bushwick Ave,304,40.699408,-73.935672,Sunday,10am-4pm,05/19/2019-12/1/2019,Yes,No,No,No,,,
2019,RB Pop Up Farm Stand ,Brooklyn,215 Cooper St,304,40.689879,-73.905298,Thursday,12pm-5pm,05/23/2019-11/21/2019,Yes,No,No,No,,,
2019,Red Hook Farm Stand,Brooklyn,560 Columbia St,306,40.672524,-74.00871,Saturday,10am-3pm,06/22/2019-11/23/2019,Yes,No,No,No,,,
2019,Red Hook Farm Stand II,Brooklyn,West 9th St & Hamilton Avenue,306,40.676024,-74.002318,Wednesday,12pm-7pm,06/19/2019-11/20/2019,Yes,No,No,No,,,
2019,Saratoga Farm Stand,Brooklyn,2046-2050 Fulton St,316,40.678543,-73.915816,Saturday,9am-2pm,07/06/2019-11/16/2019,Yes,No,No,No,,,
2019,South Williamsburg Greenmarket,Brooklyn,Taylor St & Lee Ave,301,40.706998,-73.961364,Thursday,8am - 4pm,07/11/19-11/28/19 (Closed 11/28/19 rescheduled 11/26/19) ,Yes,No,No,No,,,
2019,Urban Oasis Farmers' Market,Brooklyn,681 Clarkson Ave.,309,40.656255,-73.936608,Wednesday,2pm-5:30pm,06/26/2019-11/06/2019,No,No,No,No,,,
2019,Woodhull Hospital Youthmarket,Brooklyn,Broadway & Flushing Ave,301,40.700726,-73.941932,Wednesday,9am-2pm,07/10/2019-11/27/2019,Yes,No,No,No,,,
2019,Wyckoff House Museum Farm Stand,Brooklyn,5816 Clarendon Rd,317,40.64497,-73.920914,Saturday,11am-3pm,,No,No,No,No,,,
2019,175th Street Greenmarket,Manhattan,W 175th St bet Wadsworth Ave & Broadway,112,40.845948,-73.937811,Thursday ,8am - 4pm,06/27/19-11/21/19 (Closed 07/04/19),Yes,No,Yes,No,,,
2019,57th Street Greenmarket,Manhattan,W 57th St & 10th Ave,104,40.769117,-73.988559,"Wednesday
Saturday ",8am-5pm,"Wednesday: 05/30/19-11/21/19; 
Saturday: 06/02/19-11/17/19",Yes,No,No,No,,,
2019,79th Street Greenmarket,Manhattan,Columbus Ave bet W 78th & 81st Sts,107,40.781274,-73.975995,Sunday,9am - 5pm,Year-Round,Yes,Yes,No,No,,,
2019,82nd Street Greenmarket,Manhattan,E 82nd St bet 1st & York Aves ,108,40.774292,-73.951262,Saturday,9am - 2:30pm,Year-Round,Yes,Yes,No,No,,,
2019,92nd Street Greenmarket,Manhattan,E 92nd St & 1st Ave,108,40.780691,-73.946592,Sunday ,9am-4pm,06/24/19-11/18/19,Yes,No,No,No,,,
2019,97th Street Greenmarket,Manhattan,W 97th St bet Columbus & Amsterdam Aves,107,40.793558,-73.967016,Friday ,8am - 2pm,Year-Round,Yes,Yes,No,No,,,
2019,Abingdon Square Greenmarket,Manhattan,Hudson St & W 12th St,102,40.737553,-74.005687,Saturday,8am - 2pm,Year-Round,Yes,Yes,No,No,,,
2019,Bowling Green Greenmarket,Manhattan,Broadway & Battery Pl,101,40.704549,-74.01429,"Tuesday
Thursday", 8am - 5pm,Year-Round (Closed 07/04/19 & 11/28/19- open 11/26/19 & 11/27/19),Yes,Yes,No,No,,,
2019,Chelsea's Down to Earth Farmers' Market,Manhattan,W 23rd St bet 8th & 9th Aves,104,40.745293,-73.998488,Saturday,9am-4pm,5/11/19-12/21/19,Yes,No,No,No,,,
2019,City Hall Greenmarket,Manhattan,Broadway & Chambers St,101,40.714165,-74.006309,"Tuesday
Friday", 8am - 4pm,Year-Round (Closed 11/28/19- open 11/26/19 & 11/27/19),Yes,Yes,No,No,,,
2019,Columbia University Greenmarket,Manhattan,Broadway & W 114th St,109,40.806707,-73.964849,"Thursday
Sunday", 8am-5pm,Year-Round (Closed 07/04/19 & 11/28/19- open 11/26/19),Yes,Yes,No,No,,,
2019,Dag Hammarskjold Plaza Greenmarket,Manhattan,E 47th St & 2nd Ave,106,40.752999,-73.969887,Wednesday,8am-4pm,Year-Round (Closed 09/26/19 & 11/25/19),Yes,Yes,No,No,,,
2019,Milbank Center Go!Healthy Farm Stand,Manhattan,18-32 W 118th St,,40.802317,-73.946351,Wednesday,3:30-6pm,07/08/2019-11/22/2019,Yes,No,No,No,,,
2019,Essex Crossing Farm Stand,Manhattan,115 Essex St,103,40.719322,-73.987817,"Wednesday
Saturday",10:30am-4:30pm,7/10/2019-11/13/2019,Yes,No,No,No,,,
2019,Fulton Stall Market ,Manhattan,Pier 17 Square ,101,40.705799,-74.002572,Sunday ,11am-5pm,04/28/19-11/24/2019,No,No,No,No,,,
2019,Fort Washington Greenmarket,Manhattan,W 168th St & Ft Washington Ave,112,40.842154,-73.942278,Tuesday,8am - 4pm,06/04/19-11/26/19,Yes,No,No,No,,,
2019,Gouverneur Health Youthmarket,Manhattan,Madison St bet Clinton & Jefferson Sts,103,40.712905,-73.986928,Thursday,8:30am-2pm,07/11/2019-11/21/2019,Yes,No,No,No,,,
2019,Grass Roots Farmers' Market,Manhattan,"W 145th St bet Edgecombe & Bradhurst Aves, at Jackie Robinson Park",109,40.823647,-73.943844,"Tuesday
Saturday",9am-4pm,07/09/2019-11/30/19,Yes,No,No,No,,,
2019,Greenmarket at Oculus Plaza,Manhattan,"Church & Fulton Sts., on Oculus Plaza",101,40.711535,-74.010464,Tuesday,7am-7pm,Year-Round,Yes,Yes,No,No,,,
2019,Hamilton Heights Green Youthmarket,Manhattan,"Amsterdam bet W 143rd & 144th Sts., at Johnny Hartman Plaza",109,40.82394,-73.948552,Wednesday,10:30am-5:30pm,06/26/2019-11/27/2019,Yes,No,No,No,,,
2019,Harvest Home 125th Street Market,Manhattan,W 125th St & Adam Clayton Powell Jr Blvd,110,40.808973,-73.948325,Tuesday,8am-6pm,06/04/2019-11/19/2019,Yes,No,No,No,,,
2019,Harvest Home East Harlem Farmers' Market,Manhattan,104th St & 3rd Ave,111,40.790253,-73.945635,Thursday,8am-4pm,07/11/2019-11/14/2019,Yes,No,No,No,,,
2019,Harvest Home Harlem Hospital Farmers' Market,Manhattan,Lenox Ave bet 135th & 137th Sts,110,40.814358,-73.940659,Friday,8am-7pm,06/07/2019-11/15/2019,Yes,No,No,No,,,
2019,Harvest Home Lenox Ave Farm Stand,Manhattan,Lenox Ave bet W 117th & 118th Sts,110,40.802699,-73.949186,Saturday,8am-4pm,06/08/2019-11/16/2019,Yes,No,No,No,,,
2019,Harvest Home Metropolitan Farmers' Market,Manhattan,E 99th St & 3rd Ave,111,40.78712,-73.947923,Friday,8am-4pm,06/04/2019-11/15/2019,Yes,No,No,No,,,
2019,Hudson Yards Down to Earth Farmers' Market,Manhattan,W 34th St & Hudson Blvd East ,104,40.755158,-74.000502,Thursday,8:30am-4pm,5/16/19-11/21/19,Yes,No,No,No,,,
2019,Inwood Park Greenmarket,Manhattan,Isham St bet Seaman Ave & Cooper St,112,40.869001,-73.920896,Saturday,8am - 3pm,Year-Round,Yes,Yes,No,No,,,
2019,Kips Bay Greenmarket ,Manhattan,2nd Ave bet 27th & 28th Sts,106,40.740395,-73.979077,Thursday, 8am-5pm,09/26/2019-11/21/2019,Yes,No,No,No,,,
2019,Lower East Side Youthmarket,Manhattan,Grand Ave bet Pitt & Willet Sts ,103,40.714932,-73.983338,Thursday,8am-3pm,07/11/2019-11/21/2019,Yes,No,No,No,,,
2019,Morningside Park's Down to Earth Farmers' Market,Manhattan,W 110th St & Manhattan Ave,107,40.801155,-73.959647,Saturday ,9am-4pm (winter closes at 3pm),Year-Round (summer hours 05/11/19-11/30/19) ,Yes,Yes,No,No,,,
2019,Mount Sinai Hospital Greenmarket,Manhattan,E 99th St bet Madison & Park Aves,111,40.789169,-73.952743,Wednesday, 8am-5pm,06/12/19-11/27/19,Yes,No,No,No,,,
2019,Project Harmony People's Market,Manhattan,"219 W. 122nd St., at Joseph Daniel Wilson Memorial Garden",110,40.807407,-73.950588,Thursday,10am-7pm,6/13/2019-10/31/2019,Yes,No,No,No,,,
2019,PS 11 Farm Market,Manhattan,W 21st St bet 8th & 9th Aves,104,40.744006,-73.999415,Wednesday,8am-10am,06/05/2019-11/13/2019 (Open through summer),No,No,No,No,,,
2019,PS 57 Youthmarket,Manhattan,E 115th St & 3rd Ave ,111,40.797261,-73.940519,Wednesday,9am-4pm,07/10/2019-11/27/2019,Yes,No,No,No,,,
2019,Rockefeller Center Greenmarket,Manhattan,Rockefeller Plaza bet W 49th & 50th Sts (Jul-Aug only),105,40.759065,-73.97845,"Wednesday 
Thursday
Friday ",8am - 5pm ,Wednesday: 07/24/19-08/28/19; Thursday: 07/25/19-08/29/19; Friday: 07/24/19-8/28/19,Yes,No,No,No,,,
2019,Staten Island Ferry Whitehall Terminal Greenmarket,Manhattan,"4 South St, inside terminal",101,40.7016879,-74.01163113,"Tuesday
Friday ",8am - 7pm,Year-Round,Yes,Yes,No,No,,,
2019,Stuyvesant Town Greenmarket,Manhattan,"E. 14th. St. Loop & Avenue A, in the Oval",103,40.730443,-73.980339,Sunday,9:30am - 4pm,05/19/19-12/22/19,Yes,No,No,No,,,
2019,Tompkins Square Greenmarket,Manhattan,E. 7th St. & Avenue A,103,40.726054,-73.983534,Sunday,9am - 6pm,Year-Round,Yes,Yes,No,No,,,
2019,Tribeca Greenmarket,Manhattan,Greenwich & Chambers Sts,101,40.716303,-74.010966,"Wednesday 
Saturday ",8am-3pm,Year-Round,Yes,Yes,No,No,,,
2019,Tucker Square Greenmarket,Manhattan,W 66th St & Broadway,107,40.773876,-73.982226,"Thursday 
Saturday ",8am - 5pm,Year-Round (Closed 07/04/19 & 11/28/19 - open 11/27/19),Yes,Yes,No,No,,,
2019,Union Square Greenmarket,Manhattan,E 17th St & Union Square W,105,40.737133,-73.990329,"Monday 
Wednesday
Friday
Saturday",8am - 6pm,Year-Round,Yes,Yes,No,No,,,
2019,Corona Greenmarket,Queens,Roosevelt Ave & 104th St,404,40.749811,-73.861668,Friday,8am - 3pm,06/21/19-11/22/19,Yes,No,Yes,No,,,
2019,Brooklyn Grange Farm Stand at Long Island City,Queens,37-18 Northern Blvd (Roof),401,40.752096,-73.925887,Saturday,11am-4pm,05/25/19-10/26/19,Yes,No,No,No,,,
2019,Cunningham Park's Down to Earth Farmers' Market,Queens,Union Tpk & 196 Pl,408,40.731082,-73.773997,Sunday,9am-2pm,5/12/19-11/24/19,Yes,No,No,No,,,
2019,Ditmars Park Youthmarket,Queens,"Steinway St bet Ditmars Blvd & 23rd Ave., at Ditmars Park",401,40.772854,-73.906061,Saturday,8am-3pm,07/13/2019-11/23/2019,Yes,No,No,No,,,
2019,Downtown Far Rockaway Youthmarket,Queens,Beach 20th and Cornaga Ave,414,40.602273,-73.753355,Saturday,9am-1pm,07/13/2019-11/23/2019,Yes,No,No,No,,,
2019,Elmhurst Hospital Greenmarket,Queens,41st Ave bet 80th & 81st Sts,404,40.745794,-73.885489,Tuesday,8am - 4pm,06/04/19-11/26/19 (closed 11/05/19),Yes,No,No,No,,,
2019,Far Rockaway Farmstand ,Queens,385 Beach 45th St,431,40.595612,-73.776551,Saturday,10am-2pm,07/06/2019-11/16/2019,Yes,No,No,No,,,
2019,Flushing Greenmarket,Queens,"Kissena Blvd. & Maple Ave., at Maple Playground",407,40.756357,-73.825773,Wednesday,8am - 3pm,07/03/19-11/27/19,Yes,No,Yes,No,,,
2019,Forest Hills Greenmarket,Queens,70th Ave & Queens Blvd,406,40.72188,-73.846383,Sunday,8am - 2pm,Year-Round,Yes,Yes,No,No,,,
2019,Forest Park Youthmarket,Queens,Myrtle Ave & Park Lane South,409,40.700955,-73.841426,Saturday,10am-2pm,07/13/2019-11/23/2019,Yes,No,No,No,,,
2019,Jackson Heights Greenmarket,Queens,34th Ave bet 79th & 80th Sts,403,40.753435,-73.887822,Sunday,8am - 2pm,Year-Round,Yes,Yes,Yes,No,,,
2019,Jamaica's Down to Earth Farmers' Market - Friday market,Queens,Parsons Blvd bet Jamaica & Archer Aves,412,40.703342,-73.799921,Friday,8:30am-4pm,6/14/19-12/06/2019,Yes,No,No,No,,,
2019,Jamaica's Down to Earth Farmers' Market- Saturday market,Queens,160th St & Jamaica Ave,412,40.703752,-73.799149,Saturday,8:30am-4pm,6/15/19-12/07/2019,Yes,No,No,No,,,
2019,Joseph Addabbo FHC Farm Stand,Queens,6200 Beach Channel Dr,414,40.593313,-73.79166,Saturday,8am-2pm,07/06/2019-11/16/2019,No,No,No,No,,,
2019,Long Island City Youthmarket,Queens,Center Blvd & 46th Rd,402,40.746916,-73.956367,Saturday,9am-2pm,07/13/2019-11/23/2019,Yes,No,No,No,,,
2019,Pomonok Community-Run Farmers' Market,Queens,67-09 Kissena Blvd,408,40.73502504,-73.81472491,Wednesday,9am-4pm,7/10/2019 - ,Yes,No,No,No,,,
2019,Queens Botanical Garden's Down to Earth Farmers' Market,Queens,82 Dahlia Ave,407,40.75186,-73.826362,Friday,8:30am-4pm,6/14/19-12/06/19,Yes,No,No,No,,,
2019,Queens County Farm Museum Farm Stand,Queens,73-50 Little Neck Pkwy,413,40.748163,-73.719431,"Wednesday, Thursday, Friday; Saturday and Sunday",11am-3pm; 11am-5pm,05/15/2019-11/03/2019,Yes,No,No,No,,,
2019,Queens County Farm Museum Farm Stand at Jamaica Hospital ,Queens,"Jamaica Ave & Van Wyck Expwy, South Service Rd",409,40.702445,-73.816861,Thursday,10am-4pm,06/13/2019-11/14/2019,Yes,No,No,No,,,
2019,Ridgewood Youthmarket,Queens,Cypress Ave bet Myrtle & Putnam Aves,405,40.700123,-73.90621,Saturday,8am-3pm,07/13/2019-11/23/2019,Yes,No,No,No,,,
2019,Rockaway Youth Task Force Youth Market,Queens,310 Beach 58th St,414,40.594492,-73.788077,Saturday,9am - 3pm,07/06/2019-11/23/2019,Yes,No,No,No,,,
2019,Socrates Sculpture Garden ,Queens,31-30 Vernon Boulevard ,401,40.768504,-73.935847,Saturday,11am - 3pm,05/04/2019-10/26/2019,Yes,No,No,No,,,
2019,Sunnyside Greenmarket,Queens,Skillman Ave bet 42nd & 43rd Sts,402,40.746999,-73.921724,Saturday,8am - 2pm,Year-Round,Yes,Yes,No,No,,,
2019,Goodhue Center Go!Healthy Food Stand,Staten Island,301 Prospect Ave,501,40.638983,-74.097422,Tuesday,4-6pm,07/08/2019-11/22/2019,Yes,No,No,No,,,
2019,HEALTH for Youths Farm Stand ,Staten Island,Clyde Pl. bet. Prospect & Harvard Aves.,501,40.6399,-74.090293,Sunday,11:30am-2pm,04/28/2019-11/24/2019,No,No,No,No,,,
2019,St. George Greenmarket,Staten Island,Hyatt St & St Marks Pl,501,40.641586,-74.0779,Saturday,9am - 1pm,Year-Round,Yes,Yes,No,No,,,
2019,Staten Island Mall Greenmarket,Staten Island,Marsh Ave & Ring Rd,502,40.583804,-74.161245,Saturday,8am - 3pm,"05/18/19 opening, tentatively year-round ",Yes,Yes,No,No,,,
2020,170 Farm Stand,Bronx,E 170th St & Townsend Ave,204,40.839882,-73.916783,Wednesday,2:30pm-6:30pm,8/12/20-11/25/20,Yes,No,No,No,,,
2020,Bissel Gardens Farmers Market,Bronx,Baychester Ave & E 241st St ,212,40.90152,-73.846937,Saturday,10am-5pm,8/1/20-11/21/20,Yes,No,No,No,,,
2020,Bronx Borough Hall Greenmarket,Bronx,Grand Concourse bet E 161st & 162nd Sts,204,40.826835,-73.922621,Tuesday, 8am-4pm,6/2 to 11/24,Yes,No,No,No,,,
2020,Bronx Family Center Go!Healthy Farm Stand,Bronx,1515 Southern Blvd,203,40.833734,-73.889934,Thursday,11am-2pm,Year-Round,Yes,Yes,No,No,,,
2020,BronxWorks Farm Stand,Bronx,1130 Grand Concourse,204,40.832331,-73.91959,Thursday,10am-4pm,07/09/2020-11/12/2020,Yes,No,No,No,,,
2020,Eastchester Farmstand,Bronx,E 229th Street and Schieffelin Avenue,212,40.88503,-73.843146,Thursday,9:30am-3pm,07/16-11/19,Yes,No,No,No,,,
2020,Fordham Plaza Greenmarket ,Bronx,Park Ave bet E 189th St & E Fordham Rd,206,40.86153,-73.891063,Friday,8am-4pm,7/10 to 11/20,Yes,No,No,No,,,
2020,Harvest Home Co-op City Farm Stand,Bronx,Asch Loop & Aldrich St,210,40.870249,-73.830963,Wednesday,8am-4pm,6/17/2020-11/25/2020,Yes,No,No,No,,,
2020,Harvest Home Hunts Point Farm Stand,Bronx,E 163rd St & Hunts Point Ave,202,40.820986,-73.891613,Wednesday,8am-4pm,6/17/2020-11/25/2020,Yes,No,No,No,,,
2020,Harvest Home Jacobi Hospital Farmers' Market,Bronx,"1400 Pelham Pkwy S, at Eastchester Rd",211,40.857427,-73.847079,Friday,8am-4pm,7/10/2020-11/19/2020,Yes,No,No,No,,,
2020,Harvest Home Mt. Eden Farmers' Market,Bronx,Mt Eden & Morris Aves,204,40.842924,-73.909558,"Tuesday
Thursday",8am-4pm,6/9/2020-11/24/2020,Yes,No,No,No,,,
2020,Harvest Home North Central Bronx Farmers' Market,Bronx,Mosholu Pkwy & Jerome Ave,207,40.879749,-73.884661,Wednesday,8am-4pm,6/17/2020-11/25/2020,Yes,No,No,No,,,
2020,Harvest Home St. Mary's Park Farm Stand,Bronx,E 149th St & Eagle Ave,201,40.813884,-73.911812,Thursday,8am-4pm,7/9/2020-11/19/2020,Yes,No,No,No,,,
2020,Kingsbridge-Riverdale Farmers' Market ,Bronx,260 W 231st St,208,40.880038,-73.907005,Sunday,9am-5pm,July,Yes,No,No,No,,,
2020,La Familia Verde Farmers' Market,Bronx,E Tremont Ave bet LaFontaine & Arthur Aves,206,40.846487,-73.894337,Tuesday,8am-2pm,07/07/2020-11/17/2020,Yes,No,No,No,,,
2020,Morrisania Farmstand,Bronx,"E 169th St & Boston Rd, at McKinley Square",203,40.831117,-73.90071,Wednesday,10am-3pm,07/01/20-11/18/20 possibly,Yes,No,No,No,,,
2020,Lincoln Hospital Greenmarket,Bronx,E 149th St bet Park & Morris Aves,201,40.818013,-73.925185,"Tuesday 
Friday",8am - 3pm,6/26/20-11/20/20,Yes,No,No,No,,,
2020,Morning Glory Market at the New York Botanical Gardens,Bronx,2900 Southern Blvd.,227,40.865684,-73.883312,Wednesday,10am-3pm,July 2020-10/28/2020,Yes,No,No,No,,,
2020,Mott Haven Farmers Market,Bronx,545 E 142nd St,201,40.809973,-73.916434,Monday,9am-3pm,07/06/2020-11/09/2020,Yes,No,No,No,,,
2020,New Roots Community Farm Stand,Bronx,670 Grand Concourse (153rd & Grand Concourse),204,40.821403,-73.925528,Tuesday,3pm-7pm,07/07/2020-10/27/2020,Yes,No,No,No,,,
2020,Norwood Farmstand,Bronx,E Gun Hill Rd & Dekalb Ave,207,40.88222,-73.880458,Thursday,10am-5pm,Year-Round,Yes,Yes,No,No,,,
2020,Parkchester Greenmarket,Bronx,Westchester Ave & White Plains Rd,209,40.833992,-73.862148,Friday,8am - 4pm,6/12 to 11/27,Yes,No,No,No,,,
2020,Poe Park Greenmarket,Bronx,E 192 St & Grand Concourse,207,40.864216,-73.895795,Tuesday,8am - 3pm,6/30 to 11/24,Yes,No,No,No,,,
2020,Riverdale Y Sunday Farmers Market,Bronx,4545 Independence Ave. (Riverdale Temple Parking Lot) ,208,40.891762,-73.912208,Sunday,9am-2pm,6/14/2020-11/22/2020,No,No,No,No,,,
2020,St. Barnabas Hospital Farm Stand & C.S.A.,Bronx,4422 3rd Ave.,206,40.853237,-73.891742,Wednesday,10 a.m. - 5 p.m.,09/01/2020-11/20/2020,Yes,No,No,No,,,
2020,Teens for Food Justice Fresh Food Box & Farmstand at Dewitt Clinton Educational Campus,Bronx,100 West Mosholu Parkway South,207,40.882178,-73.88691,Thursday,4-6pm,Year-round,Yes,Yes,No,No,,,
2020,Van Cortlandt Park Alliance Amalgamated Housing Youth Farmstand,Bronx,Orloff Ave & Gale Pl ,208,40.884532,-73.892172,Wednesday,1-6:30pm,07/08/2020-10/28/2020,Yes,No,No,No,,,
2020,"Whitney Young, Jr. Campus Go!Healthy Food Box",Bronx,1919 Prospect Ave. ,206,40.843546,-73.889755,Thursday,12 - 2p.m.,07/06/2020-11/20/2020,Yes,No,No,No,,,
2020,4th Ave Sunset Park Greenmarket ,Brooklyn,4th Ave bet 59th & 60th Sts ,307,40.641435,-74.017815,Saturday,8am - 3pm,7/11 to 11/21,Yes,No,No,No,,,
2020,6th Ave Sunset Park Greenmarket,Brooklyn,44th St & 6th Ave,307,40.647132,-74.004623,Saturday,8am-3pm,Year-round,Yes,Yes,No,No,,,
2020,Bartel-Pritchard Square Greenmarket,Brooklyn,Prospect Park W & 15th St,306,40.661154,-73.980172,"Wednesday 
Sunday ",W: 8am - 3pm; S: 9am-3pm,"Wednesday: Year-Round (Closed 12/25/19 & 1/1/20); 
Sunday: 05/05/19-12/22/19",Yes,Yes,No,No,,,
2020,Bay Ridge Greenmarket,Brooklyn,95th St & 3rd Ave,310,40.617278,-74.033588,Saturday,8am - 3pm,5/2 to 11/21,Yes,No,No,No,,,
2020,Bensonhurst Greenmarket,Brooklyn,81st St & 18th Ave,311,40.609951,-73.999456,Sunday, 9am - 4pm,5/31 to 11/29,Yes,No,No,No,,,
2020,Borough Park Greenmarket,Brooklyn,14th Ave bet 49th & 50th Sts,312,40.633696,-73.989916,Thursday,8am - 3pm,7/2 to 10/08,Yes,No,No,No,,,
2020,Brooklyn Borough Hall Greenmarket,Brooklyn,Court & Montague Sts,302,40.693722,-73.990455,"Tuesday 
Thursday
Saturday",8am - 5pm,Year-Round (Thursday temporarily closed for COVID),Yes,Yes,No,No,,,
2020,Brownsville/ENY - Health & Hospitals East New York,Brooklyn,2094 Pitkin Ave.,305,"
40.671977",-73.895248,Wednesday,10 a.m. - 3 p.m.,09/01/2020-11/20/2020,Yes,No,No,No,,,
2020,Brownsville Pitkin Farmstand,Brooklyn,Pitkin Ave & Thomas Boyland St,316,40.669264,-73.913554,Saturday ,9am-2pm,07/11/20-11/21/20 (estimate) ,Yes,No,No,No,,,
2020,Carroll Gardens Greenmarket,Brooklyn,Carroll St bet Smith & Court Sts,306,40.68106,-73.996528,Sunday,8am - 2pm,Year-Round,Yes,Yes,No,No,,,
2020,Cortelyou Greenmarket,Brooklyn,Cortelyou & Rugby Rds,314,40.640825,-73.965301,Sunday,8am - 3pm,Year-Round,Yes,Yes,No,No,,,
2020,Cypress Hills Farmstand,Brooklyn,Fulton & Richmond Sts,305,40.682391,-73.876616,Friday,10am-5pm,7/10/20-11/20/20 estimate,Yes,No,No,No,,,
2020,Domino Park Greenmarket,Brooklyn,15 River St,301,40.715385,-73.967441,Sunday,8am - 3pm,7/12/2020- 11/29/2020,Yes,No,No,No,,,
2020,East New York Farmers' Market ,Brooklyn,Schenck Ave bet New Lots & Livonia Aves,305,40.665296,-73.886557,Saturday ,9am-3pm,06/27/2020-11/14/2020,Yes,No,No,No,,,
